[
  {
    "id": "osm-node-276401357",
    "name": "살루떼",
    "nameKo": "살루떼",
    "type": "restaurant",
    "lat": 36.3773419,
    "lng": 127.4054469,
    "isIndoor": false,
    "description": "Great food and atmosphere in Daejeon. 살루떼 offers a memorable experience.",
    "themes": [
      "Gourmet",
      "Healing"
    ],
    "mealType": "lunch",
    "estimatedDuration": 86
  },
  {
    "id": "osm-node-276401363",
    "name": "비비스페이스",
    "nameKo": "비비스페이스",
    "type": "restaurant",
    "lat": 36.3846912,
    "lng": 127.3802393,
    "isIndoor": true,
    "description": "Local favorite restaurant in Daejeon. 비비스페이스 offers a memorable experience.",
    "themes": [
      "Gourmet",
      "Healing"
    ],
    "mealType": "dinner",
    "estimatedDuration": 88
  },
  {
    "id": "osm-node-277922811",
    "name": "Noeun Duck Galpi",
    "nameKo": "Noeun Duck Galpi",
    "type": "restaurant",
    "lat": 36.3824176,
    "lng": 127.3206163,
    "isIndoor": true,
    "description": "Local favorite restaurant in Daejeon. Noeun Duck Galpi offers a memorable experience.",
    "themes": [
      "Gourmet"
    ],
    "mealType": "lunch",
    "estimatedDuration": 105
  },
  {
    "id": "osm-node-280226099",
    "name": "Cin-Cin Italian Pizzeria",
    "nameKo": "Cin-Cin Italian Pizzeria",
    "type": "restaurant",
    "lat": 36.3756012,
    "lng": 127.317685,
    "isIndoor": true,
    "description": "Great food and atmosphere in Daejeon. Cin-Cin Italian Pizzeria offers a memorable experience.",
    "themes": [
      "Gourmet"
    ],
    "mealType": "lunch",
    "estimatedDuration": 64
  },
  {
    "id": "osm-node-281453701",
    "name": "Kung Chinese Restaurant",
    "nameKo": "Kung Chinese Restaurant",
    "type": "restaurant",
    "lat": 36.3657299,
    "lng": 127.3824913,
    "isIndoor": true,
    "description": "Local favorite restaurant in Daejeon. Kung Chinese Restaurant offers a memorable experience.",
    "themes": [
      "Gourmet",
      "Healing"
    ],
    "mealType": "lunch",
    "estimatedDuration": 113
  },
  {
    "id": "osm-node-281455212",
    "name": "Outback Australian Steakhouse",
    "nameKo": "Outback Australian Steakhouse",
    "type": "restaurant",
    "lat": 36.3476286,
    "lng": 127.3767999,
    "isIndoor": true,
    "description": "Local favorite restaurant in Daejeon. Outback Australian Steakhouse offers a memorable experience.",
    "themes": [
      "Gourmet",
      "Healing"
    ],
    "mealType": "dinner",
    "estimatedDuration": 65
  },
  {
    "id": "osm-node-282178904",
    "name": "Noeun Prehistoric Museum",
    "nameKo": "Noeun Prehistoric Museum",
    "type": "culture",
    "lat": 36.3717774,
    "lng": 127.323761,
    "isIndoor": true,
    "description": "Perfect for a quiet date in Daejeon. Noeun Prehistoric Museum offers a memorable experience.",
    "themes": [
      "Intellectual",
      "Quiet"
    ],
    "mealType": null,
    "estimatedDuration": 42
  },
  {
    "id": "osm-node-315747410",
    "name": "Bennigan´s Steakhouse",
    "nameKo": "Bennigan´s Steakhouse",
    "type": "restaurant",
    "lat": 36.3500461,
    "lng": 127.377101,
    "isIndoor": false,
    "description": "Local favorite restaurant in Daejeon. Bennigan´s Steakhouse offers a memorable experience.",
    "themes": [
      "Gourmet",
      "Healing"
    ],
    "mealType": "dinner",
    "estimatedDuration": 75
  },
  {
    "id": "osm-node-331390855",
    "name": "한밭교육박물관",
    "nameKo": "한밭교육박물관",
    "type": "culture",
    "lat": 36.3374911,
    "lng": 127.4287548,
    "isIndoor": true,
    "description": "Inspiring cultural space in Daejeon. 한밭교육박물관 offers a memorable experience.",
    "themes": [
      "Intellectual",
      "Quiet"
    ],
    "mealType": null,
    "estimatedDuration": 32
  },
  {
    "id": "osm-node-368634021",
    "name": "MCV아카데미극장",
    "nameKo": "MCV아카데미극장",
    "type": "activity",
    "lat": 36.331636,
    "lng": 127.431816,
    "isIndoor": true,
    "description": "Fun activity spot in Daejeon. MCV아카데미극장 offers a memorable experience.",
    "themes": [
      "Activity"
    ],
    "mealType": null,
    "estimatedDuration": 97
  },
  {
    "id": "osm-node-368634043",
    "name": "메가박스 대전",
    "nameKo": "메가박스 대전",
    "type": "activity",
    "lat": 36.347176,
    "lng": 127.387949,
    "isIndoor": true,
    "description": "Fun activity spot in Daejeon. 메가박스 대전 offers a memorable experience.",
    "themes": [
      "Activity"
    ],
    "mealType": null,
    "estimatedDuration": 37
  },
  {
    "id": "osm-node-368634280",
    "name": "롯데시네마",
    "nameKo": "롯데시네마",
    "type": "activity",
    "lat": 36.3620466,
    "lng": 127.3790805,
    "isIndoor": true,
    "description": "Fun activity spot in Daejeon. 롯데시네마 offers a memorable experience.",
    "themes": [
      "Activity"
    ],
    "mealType": null,
    "estimatedDuration": 109
  },
  {
    "id": "osm-node-368634564",
    "name": "동화극장",
    "nameKo": "동화극장",
    "type": "activity",
    "lat": 36.323064,
    "lng": 127.435509,
    "isIndoor": true,
    "description": "Great for an active date in Daejeon. 동화극장 offers a memorable experience.",
    "themes": [
      "Activity"
    ],
    "mealType": null,
    "estimatedDuration": 87
  },
  {
    "id": "osm-node-368634573",
    "name": "신도극장",
    "nameKo": "신도극장",
    "type": "activity",
    "lat": 36.331206,
    "lng": 127.428432,
    "isIndoor": true,
    "description": "Fun activity spot in Daejeon. 신도극장 offers a memorable experience.",
    "themes": [
      "Activity"
    ],
    "mealType": null,
    "estimatedDuration": 95
  },
  {
    "id": "osm-node-368634893",
    "name": "갤러리아 시네마",
    "nameKo": "갤러리아 시네마",
    "type": "activity",
    "lat": 36.35222,
    "lng": 127.378494,
    "isIndoor": true,
    "description": "Great for an active date in Daejeon. 갤러리아 시네마 offers a memorable experience.",
    "themes": [
      "Activity"
    ],
    "mealType": null,
    "estimatedDuration": 75
  },
  {
    "id": "osm-node-368634905",
    "name": "CGV 유성노은",
    "nameKo": "CGV 유성노은",
    "type": "activity",
    "lat": 36.372508,
    "lng": 127.3184534,
    "isIndoor": true,
    "description": "Fun activity spot in Daejeon. CGV 유성노은 offers a memorable experience.",
    "themes": [
      "Activity"
    ],
    "mealType": null,
    "estimatedDuration": 93
  },
  {
    "id": "osm-node-368635044",
    "name": "대전아트시네마",
    "nameKo": "대전아트시네마",
    "type": "activity",
    "lat": 36.330044,
    "lng": 127.4304909,
    "isIndoor": false,
    "description": "Great for an active date in Daejeon. 대전아트시네마 offers a memorable experience.",
    "themes": [
      "Activity"
    ],
    "mealType": null,
    "estimatedDuration": 41
  },
  {
    "id": "osm-node-368635570",
    "name": "청춘극장",
    "nameKo": "청춘극장",
    "type": "activity",
    "lat": 36.361955,
    "lng": 127.349765,
    "isIndoor": false,
    "description": "Memorable experience in Daejeon. 청춘극장 offers a memorable experience.",
    "themes": [
      "Activity"
    ],
    "mealType": null,
    "estimatedDuration": 32
  },
  {
    "id": "osm-node-368655805",
    "name": "대전갈마도서관",
    "nameKo": "대전갈마도서관",
    "type": "culture",
    "lat": 36.340723,
    "lng": 127.365684,
    "isIndoor": true,
    "description": "Artistic and cultural vibe in Daejeon. 대전갈마도서관 offers a memorable experience.",
    "themes": [
      "Intellectual",
      "Quiet"
    ],
    "mealType": null,
    "estimatedDuration": 65
  },
  {
    "id": "osm-node-368655820",
    "name": "한밭도서관 본관",
    "nameKo": "한밭도서관",
    "type": "culture",
    "lat": 36.3099574,
    "lng": 127.4096858,
    "isIndoor": false,
    "description": "Inspiring cultural space in Daejeon. 한밭도서관 본관 offers a memorable experience.",
    "themes": [
      "Intellectual",
      "Quiet"
    ],
    "mealType": null,
    "estimatedDuration": 111
  },
  {
    "id": "osm-node-368655849",
    "name": "대전점자도서관",
    "nameKo": "대전점자도서관",
    "type": "culture",
    "lat": 36.332637,
    "lng": 127.429959,
    "isIndoor": true,
    "description": "Artistic and cultural vibe in Daejeon. 대전점자도서관 offers a memorable experience.",
    "themes": [
      "Intellectual",
      "Quiet"
    ],
    "mealType": null,
    "estimatedDuration": 63
  },
  {
    "id": "osm-node-368655851",
    "name": "꾸러기도서관",
    "nameKo": "꾸러기도서관",
    "type": "culture",
    "lat": 36.355385,
    "lng": 127.448826,
    "isIndoor": true,
    "description": "Inspiring cultural space in Daejeon. 꾸러기도서관 offers a memorable experience.",
    "themes": [
      "Intellectual",
      "Quiet"
    ],
    "mealType": null,
    "estimatedDuration": 115
  },
  {
    "id": "osm-node-368655859",
    "name": "느낌표만화도서관",
    "nameKo": "느낌표만화도서관",
    "type": "culture",
    "lat": 36.312717,
    "lng": 127.380923,
    "isIndoor": true,
    "description": "Artistic and cultural vibe in Daejeon. 느낌표만화도서관 offers a memorable experience.",
    "themes": [
      "Intellectual",
      "Quiet"
    ],
    "mealType": null,
    "estimatedDuration": 91
  },
  {
    "id": "osm-node-368662222",
    "name": "버드내수족관작은동물원",
    "nameKo": "버드내수족관작은동물원",
    "type": "activity",
    "lat": 36.326383,
    "lng": 127.391709,
    "isIndoor": true,
    "description": "Memorable experience in Daejeon. 버드내수족관작은동물원 offers a memorable experience.",
    "themes": [
      "Activity"
    ],
    "mealType": null,
    "estimatedDuration": 53
  },
  {
    "id": "osm-node-368680379",
    "name": "주공마트",
    "nameKo": "주공마트",
    "type": "restaurant",
    "lat": 36.2983977,
    "lng": 127.3274144,
    "isIndoor": true,
    "description": "A popular dining spot in Daejeon. 주공마트 offers a memorable experience.",
    "themes": [
      "Gourmet"
    ],
    "mealType": "dinner",
    "estimatedDuration": 71
  },
  {
    "id": "osm-node-368725647",
    "name": "테오리아갤러리",
    "nameKo": "테오리아갤러리",
    "type": "culture",
    "lat": 36.29962,
    "lng": 127.335394,
    "isIndoor": true,
    "description": "Perfect for a quiet date in Daejeon. 테오리아갤러리 offers a memorable experience.",
    "themes": [
      "Intellectual",
      "Quiet"
    ],
    "mealType": null,
    "estimatedDuration": 71
  },
  {
    "id": "osm-node-368725675",
    "name": "하들래갤러리",
    "nameKo": "하들래갤러리",
    "type": "culture",
    "lat": 36.34813,
    "lng": 127.389423,
    "isIndoor": true,
    "description": "Artistic and cultural vibe in Daejeon. 하들래갤러리 offers a memorable experience.",
    "themes": [
      "Intellectual",
      "Quiet"
    ],
    "mealType": null,
    "estimatedDuration": 108
  },
  {
    "id": "osm-node-368725694",
    "name": "여진불교미술관",
    "nameKo": "여진불교미술관",
    "type": "culture",
    "lat": 36.410362,
    "lng": 127.406289,
    "isIndoor": true,
    "description": "Artistic and cultural vibe in Daejeon. 여진불교미술관 offers a memorable experience.",
    "themes": [
      "Intellectual",
      "Quiet"
    ],
    "mealType": null,
    "estimatedDuration": 115
  },
  {
    "id": "osm-node-368725876",
    "name": "대전현대갤러리",
    "nameKo": "대전현대갤러리",
    "type": "culture",
    "lat": 36.325205,
    "lng": 127.423363,
    "isIndoor": false,
    "description": "Inspiring cultural space in Daejeon. 대전현대갤러리 offers a memorable experience.",
    "themes": [
      "Intellectual",
      "Quiet"
    ],
    "mealType": null,
    "estimatedDuration": 86
  },
  {
    "id": "osm-node-368726429",
    "name": "한빛갤러리",
    "nameKo": "한빛갤러리",
    "type": "culture",
    "lat": 36.324799,
    "lng": 127.423177,
    "isIndoor": true,
    "description": "Perfect for a quiet date in Daejeon. 한빛갤러리 offers a memorable experience.",
    "themes": [
      "Intellectual",
      "Quiet"
    ],
    "mealType": null,
    "estimatedDuration": 41
  },
  {
    "id": "osm-node-368726670",
    "name": "오원화랑",
    "nameKo": "오원화랑",
    "type": "culture",
    "lat": 36.353164,
    "lng": 127.388693,
    "isIndoor": true,
    "description": "Artistic and cultural vibe in Daejeon. 오원화랑 offers a memorable experience.",
    "themes": [
      "Intellectual",
      "Quiet"
    ],
    "mealType": null,
    "estimatedDuration": 112
  },
  {
    "id": "osm-node-368726745",
    "name": "홍인갤러리",
    "nameKo": "홍인갤러리",
    "type": "culture",
    "lat": 36.3561668,
    "lng": 127.3428991,
    "isIndoor": true,
    "description": "Inspiring cultural space in Daejeon. 홍인갤러리 offers a memorable experience.",
    "themes": [
      "Intellectual",
      "Quiet"
    ],
    "mealType": null,
    "estimatedDuration": 106
  },
  {
    "id": "osm-node-368727517",
    "name": "이공갤러리",
    "nameKo": "이공갤러리",
    "type": "culture",
    "lat": 36.325527,
    "lng": 127.4267442,
    "isIndoor": true,
    "description": "Artistic and cultural vibe in Daejeon. 이공갤러리 offers a memorable experience.",
    "themes": [
      "Intellectual",
      "Quiet"
    ],
    "mealType": null,
    "estimatedDuration": 49
  },
  {
    "id": "osm-node-368727521",
    "name": "한림갤러리",
    "nameKo": "한림갤러리",
    "type": "culture",
    "lat": 36.324464,
    "lng": 127.422834,
    "isIndoor": false,
    "description": "Perfect for a quiet date in Daejeon. 한림갤러리 offers a memorable experience.",
    "themes": [
      "Intellectual",
      "Quiet"
    ],
    "mealType": null,
    "estimatedDuration": 115
  },
  {
    "id": "osm-node-368727527",
    "name": "원화랑",
    "nameKo": "원화랑",
    "type": "culture",
    "lat": 36.332653,
    "lng": 127.416502,
    "isIndoor": false,
    "description": "Artistic and cultural vibe in Daejeon. 원화랑 offers a memorable experience.",
    "themes": [
      "Intellectual",
      "Quiet"
    ],
    "mealType": null,
    "estimatedDuration": 55
  },
  {
    "id": "osm-node-368727529",
    "name": "남도화랑",
    "nameKo": "남도화랑",
    "type": "culture",
    "lat": 36.335064,
    "lng": 127.417353,
    "isIndoor": true,
    "description": "Inspiring cultural space in Daejeon. 남도화랑 offers a memorable experience.",
    "themes": [
      "Intellectual",
      "Quiet"
    ],
    "mealType": null,
    "estimatedDuration": 61
  },
  {
    "id": "osm-node-368727537",
    "name": "태평화랑",
    "nameKo": "태평화랑",
    "type": "culture",
    "lat": 36.333506,
    "lng": 127.372938,
    "isIndoor": false,
    "description": "Inspiring cultural space in Daejeon. 태평화랑 offers a memorable experience.",
    "themes": [
      "Intellectual",
      "Quiet"
    ],
    "mealType": null,
    "estimatedDuration": 57
  },
  {
    "id": "osm-node-368727539",
    "name": "둔산화랑",
    "nameKo": "둔산화랑",
    "type": "culture",
    "lat": 36.348637,
    "lng": 127.398923,
    "isIndoor": true,
    "description": "Perfect for a quiet date in Daejeon. 둔산화랑 offers a memorable experience.",
    "themes": [
      "Intellectual",
      "Quiet"
    ],
    "mealType": null,
    "estimatedDuration": 65
  },
  {
    "id": "osm-node-368727546",
    "name": "강릉화랑",
    "nameKo": "강릉화랑",
    "type": "culture",
    "lat": 36.321099,
    "lng": 127.396706,
    "isIndoor": false,
    "description": "Inspiring cultural space in Daejeon. 강릉화랑 offers a memorable experience.",
    "themes": [
      "Intellectual",
      "Quiet"
    ],
    "mealType": null,
    "estimatedDuration": 79
  },
  {
    "id": "osm-node-368727548",
    "name": "대림화랑",
    "nameKo": "대림화랑",
    "type": "culture",
    "lat": 36.3515238,
    "lng": 127.3888982,
    "isIndoor": true,
    "description": "Artistic and cultural vibe in Daejeon. 대림화랑 offers a memorable experience.",
    "themes": [
      "Intellectual",
      "Quiet"
    ],
    "mealType": null,
    "estimatedDuration": 112
  },
  {
    "id": "osm-node-368727557",
    "name": "가보갤러리",
    "nameKo": "가보갤러리",
    "type": "culture",
    "lat": 36.352143,
    "lng": 127.388222,
    "isIndoor": true,
    "description": "Artistic and cultural vibe in Daejeon. 가보갤러리 offers a memorable experience.",
    "themes": [
      "Intellectual",
      "Quiet"
    ],
    "mealType": null,
    "estimatedDuration": 72
  },
  {
    "id": "osm-node-368727566",
    "name": "삼익화랑",
    "nameKo": "삼익화랑",
    "type": "culture",
    "lat": 36.359558,
    "lng": 127.448864,
    "isIndoor": false,
    "description": "Inspiring cultural space in Daejeon. 삼익화랑 offers a memorable experience.",
    "themes": [
      "Intellectual",
      "Quiet"
    ],
    "mealType": null,
    "estimatedDuration": 52
  },
  {
    "id": "osm-node-368727567",
    "name": "이브갤러리",
    "nameKo": "이브갤러리",
    "type": "culture",
    "lat": 36.350181,
    "lng": 127.29667,
    "isIndoor": false,
    "description": "Perfect for a quiet date in Daejeon. 이브갤러리 offers a memorable experience.",
    "themes": [
      "Intellectual",
      "Quiet"
    ],
    "mealType": null,
    "estimatedDuration": 38
  },
  {
    "id": "osm-node-368727572",
    "name": "명지화랑",
    "nameKo": "명지화랑",
    "type": "culture",
    "lat": 36.3498383,
    "lng": 127.3872194,
    "isIndoor": false,
    "description": "Perfect for a quiet date in Daejeon. 명지화랑 offers a memorable experience.",
    "themes": [
      "Intellectual",
      "Quiet"
    ],
    "mealType": null,
    "estimatedDuration": 31
  },
  {
    "id": "osm-node-368727576",
    "name": "동화랑",
    "nameKo": "동화랑",
    "type": "culture",
    "lat": 36.358957,
    "lng": 127.42073,
    "isIndoor": true,
    "description": "Artistic and cultural vibe in Daejeon. 동화랑 offers a memorable experience.",
    "themes": [
      "Intellectual",
      "Quiet"
    ],
    "mealType": null,
    "estimatedDuration": 76
  },
  {
    "id": "osm-node-368733417",
    "name": "민속촌",
    "nameKo": "민속촌",
    "type": "activity",
    "lat": 36.349505,
    "lng": 127.331283,
    "isIndoor": true,
    "description": "Fun activity spot in Daejeon. 민속촌 offers a memorable experience.",
    "themes": [
      "Activity",
      "Active",
      "Fun"
    ],
    "mealType": null,
    "estimatedDuration": 94
  },
  {
    "id": "osm-node-368734753",
    "name": "대전대학교박물관",
    "nameKo": "대전대학교박물관",
    "type": "culture",
    "lat": 36.335806,
    "lng": 127.460372,
    "isIndoor": true,
    "description": "Perfect for a quiet date in Daejeon. 대전대학교박물관 offers a memorable experience.",
    "themes": [
      "Intellectual",
      "Quiet"
    ],
    "mealType": null,
    "estimatedDuration": 54
  },
  {
    "id": "osm-node-368735145",
    "name": "선비박물관",
    "nameKo": "선비박물관",
    "type": "culture",
    "lat": 36.35324,
    "lng": 127.380536,
    "isIndoor": false,
    "description": "Artistic and cultural vibe in Daejeon. 선비박물관 offers a memorable experience.",
    "themes": [
      "Intellectual",
      "Quiet"
    ],
    "mealType": null,
    "estimatedDuration": 62
  },
  {
    "id": "osm-node-368735842",
    "name": "동산도기박물관",
    "nameKo": "동산도기박물관",
    "type": "culture",
    "lat": 36.3190464,
    "lng": 127.3739383,
    "isIndoor": true,
    "description": "Artistic and cultural vibe in Daejeon. 동산도기박물관 offers a memorable experience.",
    "themes": [
      "Intellectual",
      "Quiet"
    ],
    "mealType": null,
    "estimatedDuration": 80
  },
  {
    "id": "osm-node-368870590",
    "name": "대전식물원",
    "nameKo": "대전식물원",
    "type": "landmark",
    "lat": 36.3439975,
    "lng": 127.39428,
    "isIndoor": true,
    "description": "Must-see view in Daejeon. 대전식물원 offers a memorable experience.",
    "themes": [
      "Nature",
      "Healing"
    ],
    "mealType": null,
    "estimatedDuration": 44
  },
  {
    "id": "osm-node-368874218",
    "name": "대덕구문예회관",
    "nameKo": "대덕구문예회관",
    "type": "culture",
    "lat": 36.37408,
    "lng": 127.420362,
    "isIndoor": true,
    "description": "Artistic and cultural vibe in Daejeon. 대덕구문예회관 offers a memorable experience.",
    "themes": [
      "Intellectual",
      "Quiet"
    ],
    "mealType": null,
    "estimatedDuration": 91
  },
  {
    "id": "osm-node-368874451",
    "name": "대전연정국악문화회관",
    "nameKo": "대전연정국악문화회관",
    "type": "culture",
    "lat": 36.321871,
    "lng": 127.416092,
    "isIndoor": true,
    "description": "Inspiring cultural space in Daejeon. 대전연정국악문화회관 offers a memorable experience.",
    "themes": [
      "Intellectual",
      "Quiet"
    ],
    "mealType": null,
    "estimatedDuration": 33
  },
  {
    "id": "osm-node-368887317",
    "name": "예인스터디카페",
    "nameKo": "예인스터디카페",
    "type": "cafe",
    "lat": 36.4187815,
    "lng": 127.3956797,
    "isIndoor": true,
    "description": "Cozy coffee shop in Daejeon. 예인스터디카페 offers a memorable experience.",
    "themes": [
      "Gourmet",
      "Healing"
    ],
    "mealType": "cafe",
    "estimatedDuration": 84
  },
  {
    "id": "osm-node-368898311",
    "name": "불교전시관",
    "nameKo": "불교전시관",
    "type": "culture",
    "lat": 36.328273,
    "lng": 127.433489,
    "isIndoor": true,
    "description": "Perfect for a quiet date in Daejeon. 불교전시관 offers a memorable experience.",
    "themes": [
      "Intellectual",
      "Quiet"
    ],
    "mealType": null,
    "estimatedDuration": 98
  },
  {
    "id": "osm-node-368898414",
    "name": "무불정사불교전시관",
    "nameKo": "무불정사불교전시관",
    "type": "culture",
    "lat": 36.357037,
    "lng": 127.33561,
    "isIndoor": true,
    "description": "Inspiring cultural space in Daejeon. 무불정사불교전시관 offers a memorable experience.",
    "themes": [
      "Intellectual",
      "Quiet"
    ],
    "mealType": null,
    "estimatedDuration": 72
  },
  {
    "id": "osm-node-368955447",
    "name": "용운골바다사냥회집",
    "nameKo": "용운골바다사냥회집",
    "type": "restaurant",
    "lat": 36.328029,
    "lng": 127.456705,
    "isIndoor": true,
    "description": "Great food and atmosphere in Daejeon. 용운골바다사냥회집 offers a memorable experience.",
    "themes": [
      "Gourmet",
      "Healing"
    ],
    "mealType": "lunch",
    "estimatedDuration": 63
  },
  {
    "id": "osm-node-368961213",
    "name": "바위섬횟집",
    "nameKo": "바위섬횟집",
    "type": "restaurant",
    "lat": 36.347762,
    "lng": 127.370607,
    "isIndoor": true,
    "description": "Local favorite restaurant in Daejeon. 바위섬횟집 offers a memorable experience.",
    "themes": [
      "Gourmet",
      "Healing"
    ],
    "mealType": "dinner",
    "estimatedDuration": 102
  },
  {
    "id": "osm-node-368961217",
    "name": "남산횟집",
    "nameKo": "남산횟집",
    "type": "restaurant",
    "lat": 36.358859,
    "lng": 127.33916,
    "isIndoor": true,
    "description": "Local favorite restaurant in Daejeon. 남산횟집 offers a memorable experience.",
    "themes": [
      "Gourmet"
    ],
    "mealType": "dinner",
    "estimatedDuration": 73
  },
  {
    "id": "osm-node-368961218",
    "name": "영일만횟집",
    "nameKo": "영일만횟집",
    "type": "restaurant",
    "lat": 36.358669,
    "lng": 127.451533,
    "isIndoor": false,
    "description": "Local favorite restaurant in Daejeon. 영일만횟집 offers a memorable experience.",
    "themes": [
      "Gourmet"
    ],
    "mealType": "dinner",
    "estimatedDuration": 101
  },
  {
    "id": "osm-node-368961222",
    "name": "완도수산횟집",
    "nameKo": "완도수산횟집",
    "type": "restaurant",
    "lat": 36.3733251,
    "lng": 127.3174151,
    "isIndoor": true,
    "description": "A popular dining spot in Daejeon. 완도수산횟집 offers a memorable experience.",
    "themes": [
      "Gourmet"
    ],
    "mealType": "lunch",
    "estimatedDuration": 98
  },
  {
    "id": "osm-node-368961224",
    "name": "형제횟집",
    "nameKo": "형제횟집",
    "type": "restaurant",
    "lat": 36.365591,
    "lng": 127.426332,
    "isIndoor": true,
    "description": "Great food and atmosphere in Daejeon. 형제횟집 offers a memorable experience.",
    "themes": [
      "Gourmet",
      "Healing"
    ],
    "mealType": "lunch",
    "estimatedDuration": 73
  },
  {
    "id": "osm-node-368961228",
    "name": "남한강횟집",
    "nameKo": "남한강횟집",
    "type": "restaurant",
    "lat": 36.330277,
    "lng": 127.443789,
    "isIndoor": false,
    "description": "A popular dining spot in Daejeon. 남한강횟집 offers a memorable experience.",
    "themes": [
      "Gourmet",
      "Healing"
    ],
    "mealType": "lunch",
    "estimatedDuration": 81
  },
  {
    "id": "osm-node-368961237",
    "name": "왕성한횟집",
    "nameKo": "왕성한횟집",
    "type": "restaurant",
    "lat": 36.356076,
    "lng": 127.450036,
    "isIndoor": false,
    "description": "Great food and atmosphere in Daejeon. 왕성한횟집 offers a memorable experience.",
    "themes": [
      "Gourmet"
    ],
    "mealType": "lunch",
    "estimatedDuration": 67
  },
  {
    "id": "osm-node-368961244",
    "name": "금산송어횟집",
    "nameKo": "금산송어횟집",
    "type": "restaurant",
    "lat": 36.363833,
    "lng": 127.431995,
    "isIndoor": true,
    "description": "Local favorite restaurant in Daejeon. 금산송어횟집 offers a memorable experience.",
    "themes": [
      "Gourmet"
    ],
    "mealType": "lunch",
    "estimatedDuration": 78
  },
  {
    "id": "osm-node-368961248",
    "name": "연안부두횟집",
    "nameKo": "연안부두횟집",
    "type": "restaurant",
    "lat": 36.341031,
    "lng": 127.4491507,
    "isIndoor": true,
    "description": "Local favorite restaurant in Daejeon. 연안부두횟집 offers a memorable experience.",
    "themes": [
      "Gourmet",
      "Healing"
    ],
    "mealType": "lunch",
    "estimatedDuration": 61
  },
  {
    "id": "osm-node-368961250",
    "name": "고래사냥횟집",
    "nameKo": "고래사냥횟집",
    "type": "restaurant",
    "lat": 36.344874,
    "lng": 127.433113,
    "isIndoor": true,
    "description": "Local favorite restaurant in Daejeon. 고래사냥횟집 offers a memorable experience.",
    "themes": [
      "Gourmet",
      "Healing"
    ],
    "mealType": "lunch",
    "estimatedDuration": 91
  },
  {
    "id": "osm-node-368961255",
    "name": "미락자연산횟집",
    "nameKo": "미락자연산횟집",
    "type": "restaurant",
    "lat": 36.345928,
    "lng": 127.39256,
    "isIndoor": false,
    "description": "Great food and atmosphere in Daejeon. 미락자연산횟집 offers a memorable experience.",
    "themes": [
      "Gourmet",
      "Healing"
    ],
    "mealType": "lunch",
    "estimatedDuration": 71
  },
  {
    "id": "osm-node-368961260",
    "name": "오천간제미횟집",
    "nameKo": "오천간제미횟집",
    "type": "restaurant",
    "lat": 36.301179,
    "lng": 127.33861,
    "isIndoor": false,
    "description": "Great food and atmosphere in Daejeon. 오천간제미횟집 offers a memorable experience.",
    "themes": [
      "Gourmet",
      "Healing"
    ],
    "mealType": "dinner",
    "estimatedDuration": 102
  },
  {
    "id": "osm-node-368961262",
    "name": "자연산잡어횟집",
    "nameKo": "자연산잡어횟집",
    "type": "restaurant",
    "lat": 36.307323,
    "lng": 127.394173,
    "isIndoor": true,
    "description": "A popular dining spot in Daejeon. 자연산잡어횟집 offers a memorable experience.",
    "themes": [
      "Gourmet"
    ],
    "mealType": "lunch",
    "estimatedDuration": 105
  },
  {
    "id": "osm-node-368961267",
    "name": "청해자연산횟집",
    "nameKo": "청해자연산횟집",
    "type": "restaurant",
    "lat": 36.350481,
    "lng": 127.450621,
    "isIndoor": false,
    "description": "A popular dining spot in Daejeon. 청해자연산횟집 offers a memorable experience.",
    "themes": [
      "Gourmet"
    ],
    "mealType": "lunch",
    "estimatedDuration": 82
  },
  {
    "id": "osm-node-368961269",
    "name": "태평동대서양횟집",
    "nameKo": "태평동대서양횟집",
    "type": "restaurant",
    "lat": 36.324948,
    "lng": 127.398504,
    "isIndoor": true,
    "description": "Great food and atmosphere in Daejeon. 태평동대서양횟집 offers a memorable experience.",
    "themes": [
      "Gourmet",
      "Healing"
    ],
    "mealType": "dinner",
    "estimatedDuration": 117
  },
  {
    "id": "osm-node-368961274",
    "name": "서해안간제미전문횟집",
    "nameKo": "서해안간제미전문횟집",
    "type": "restaurant",
    "lat": 36.316603,
    "lng": 127.391673,
    "isIndoor": true,
    "description": "Local favorite restaurant in Daejeon. 서해안간제미전문횟집 offers a memorable experience.",
    "themes": [
      "Gourmet"
    ],
    "mealType": "lunch",
    "estimatedDuration": 72
  },
  {
    "id": "osm-node-599904921",
    "name": "김밥천국",
    "nameKo": "김밥천국",
    "type": "restaurant",
    "lat": 36.3370669,
    "lng": 127.4478224,
    "isIndoor": true,
    "description": "Great food and atmosphere in Daejeon. 김밥천국 offers a memorable experience.",
    "themes": [
      "Gourmet"
    ],
    "mealType": "lunch",
    "estimatedDuration": 89
  },
  {
    "id": "osm-node-746025358",
    "name": "월드컵볼링장 (Worldcup Bowling Center)",
    "nameKo": "월드컵볼링장 (Worldcup Bowling Center)",
    "type": "activity",
    "lat": 36.3662522,
    "lng": 127.3250628,
    "isIndoor": false,
    "description": "Fun activity spot in Daejeon. 월드컵볼링장 (Worldcup Bowling Center) offers a memorable experience.",
    "themes": [
      "Activity",
      "Active",
      "Fun"
    ],
    "mealType": null,
    "estimatedDuration": 72
  },
  {
    "id": "osm-node-764757476",
    "name": "teresia",
    "nameKo": "teresia",
    "type": "shopping",
    "lat": 36.3004359,
    "lng": 127.3351638,
    "isIndoor": true,
    "description": "Indoor date-friendly mall in Daejeon. teresia offers a memorable experience.",
    "themes": [
      "Indoor",
      "Shopping"
    ],
    "mealType": null,
    "estimatedDuration": 32
  },
  {
    "id": "osm-node-765819211",
    "name": "가원 (Gawon)",
    "nameKo": "가원 (Gawon)",
    "type": "restaurant",
    "lat": 36.3221984,
    "lng": 127.417764,
    "isIndoor": true,
    "description": "A popular dining spot in Daejeon. 가원 (Gawon) offers a memorable experience.",
    "themes": [
      "Gourmet",
      "Healing"
    ],
    "mealType": "lunch",
    "estimatedDuration": 102
  },
  {
    "id": "osm-node-774543232",
    "name": "개천식당 (Gaecheonsikdang)",
    "nameKo": "개천식당 (Gaecheonsikdang)",
    "type": "restaurant",
    "lat": 36.3286337,
    "lng": 127.431754,
    "isIndoor": false,
    "description": "A popular dining spot in Daejeon. 개천식당 (Gaecheonsikdang) offers a memorable experience.",
    "themes": [
      "Gourmet",
      "Healing"
    ],
    "mealType": "lunch",
    "estimatedDuration": 87
  },
  {
    "id": "osm-node-774543234",
    "name": "흥미냉면",
    "nameKo": "흥미냉면",
    "type": "restaurant",
    "lat": 36.3292929,
    "lng": 127.4307284,
    "isIndoor": true,
    "description": "Great food and atmosphere in Daejeon. 흥미냉면 offers a memorable experience.",
    "themes": [
      "Gourmet"
    ],
    "mealType": "lunch",
    "estimatedDuration": 80
  },
  {
    "id": "osm-node-1055853107",
    "name": "롯데백화점",
    "nameKo": "롯데백화점",
    "type": "shopping",
    "lat": 36.3635661,
    "lng": 127.3564702,
    "isIndoor": true,
    "description": "Indoor date-friendly mall in Daejeon. 롯데백화점 offers a memorable experience.",
    "themes": [
      "Indoor",
      "Shopping"
    ],
    "mealType": null,
    "estimatedDuration": 97
  },
  {
    "id": "osm-node-1097718118",
    "name": "Daejeon Climbing Wall",
    "nameKo": "Daejeon Climbing Wall",
    "type": "activity",
    "lat": 36.3619752,
    "lng": 127.3235954,
    "isIndoor": true,
    "description": "Memorable experience in Daejeon. Daejeon Climbing Wall offers a memorable experience.",
    "themes": [
      "Activity"
    ],
    "mealType": null,
    "estimatedDuration": 99
  },
  {
    "id": "osm-node-1282620663",
    "name": "Casablanca",
    "nameKo": "Casablanca",
    "type": "restaurant",
    "lat": 36.4005189,
    "lng": 127.3959997,
    "isIndoor": false,
    "description": "A popular dining spot in Daejeon. Casablanca offers a memorable experience.",
    "themes": [
      "Gourmet",
      "Healing"
    ],
    "mealType": "dinner",
    "estimatedDuration": 107
  },
  {
    "id": "osm-node-1391822700",
    "name": "Observation Platform",
    "nameKo": "Observation Platform",
    "type": "landmark",
    "lat": 36.369813,
    "lng": 127.3923815,
    "isIndoor": true,
    "description": "Notable location in Daejeon. Observation Platform offers a memorable experience.",
    "themes": [
      "Nature",
      "Healing"
    ],
    "mealType": null,
    "estimatedDuration": 70
  },
  {
    "id": "osm-node-1573852209",
    "name": "띠울石갈비",
    "nameKo": "띠울갈비",
    "type": "restaurant",
    "lat": 36.3528355,
    "lng": 127.3460316,
    "isIndoor": true,
    "description": "A popular dining spot in Daejeon. 띠울石갈비 offers a memorable experience.",
    "themes": [
      "Gourmet",
      "Healing"
    ],
    "mealType": "dinner",
    "estimatedDuration": 91
  },
  {
    "id": "osm-node-1667931020",
    "name": "CGV 대전 터미널(Daejeon Terminal)",
    "nameKo": "씨제이 씨지브이 ㈜",
    "type": "activity",
    "lat": 36.3512764,
    "lng": 127.4374551,
    "isIndoor": true,
    "description": "Fun activity spot in Daejeon. CGV 대전 터미널(Daejeon Terminal) offers a memorable experience.",
    "themes": [
      "Activity"
    ],
    "mealType": null,
    "estimatedDuration": 68
  },
  {
    "id": "osm-node-1707852076",
    "name": "Brunch Caffe",
    "nameKo": "Brunch Caffe",
    "type": "cafe",
    "lat": 36.3547952,
    "lng": 127.4268034,
    "isIndoor": true,
    "description": "Perfect for a relaxing break in Daejeon. Brunch Caffe offers a memorable experience.",
    "themes": [
      "Gourmet"
    ],
    "mealType": "cafe",
    "estimatedDuration": 70
  },
  {
    "id": "osm-node-1707852131",
    "name": "파리바게뜨",
    "nameKo": "파리바게뜨",
    "type": "cafe",
    "lat": 36.3514228,
    "lng": 127.4268613,
    "isIndoor": true,
    "description": "Cozy coffee shop in Daejeon. 파리바게뜨 offers a memorable experience.",
    "themes": [
      "Gourmet",
      "Healing"
    ],
    "mealType": "cafe",
    "estimatedDuration": 30
  },
  {
    "id": "osm-node-1707932704",
    "name": "Takorea",
    "nameKo": "Takorea",
    "type": "restaurant",
    "lat": 36.3273613,
    "lng": 127.4242998,
    "isIndoor": false,
    "description": "Local favorite restaurant in Daejeon. Takorea offers a memorable experience.",
    "themes": [
      "Gourmet"
    ],
    "mealType": "dinner",
    "estimatedDuration": 74
  },
  {
    "id": "osm-node-1707935944",
    "name": "Daejeon Cantina",
    "nameKo": "Daejeon Cantina",
    "type": "restaurant",
    "lat": 36.3507907,
    "lng": 127.3748745,
    "isIndoor": true,
    "description": "Local favorite restaurant in Daejeon. Daejeon Cantina offers a memorable experience.",
    "themes": [
      "Gourmet"
    ],
    "mealType": "lunch",
    "estimatedDuration": 110
  },
  {
    "id": "osm-node-1709791282",
    "name": "Blooming Garden",
    "nameKo": "Blooming Garden",
    "type": "cafe",
    "lat": 36.3521909,
    "lng": 127.4252221,
    "isIndoor": true,
    "description": "Perfect for a relaxing break in Daejeon. Blooming Garden offers a memorable experience.",
    "themes": [
      "Gourmet",
      "Healing"
    ],
    "mealType": "cafe",
    "estimatedDuration": 93
  },
  {
    "id": "osm-node-1709791649",
    "name": "Noriter",
    "nameKo": "Noriter",
    "type": "cafe",
    "lat": 36.3520785,
    "lng": 127.4253749,
    "isIndoor": false,
    "description": "Perfect for a relaxing break in Daejeon. Noriter offers a memorable experience.",
    "themes": [
      "Gourmet"
    ],
    "mealType": "cafe",
    "estimatedDuration": 86
  },
  {
    "id": "osm-node-1709793875",
    "name": "Dasarang",
    "nameKo": "Dasarang",
    "type": "restaurant",
    "lat": 36.3515294,
    "lng": 127.4262905,
    "isIndoor": true,
    "description": "Local favorite restaurant in Daejeon. Dasarang offers a memorable experience.",
    "themes": [
      "Gourmet"
    ],
    "mealType": "dinner",
    "estimatedDuration": 102
  },
  {
    "id": "osm-node-1710971850",
    "name": "맥도날드",
    "nameKo": "맥도날드",
    "type": "restaurant",
    "lat": 36.3343649,
    "lng": 127.3889507,
    "isIndoor": true,
    "description": "Local favorite restaurant in Daejeon. 맥도날드 offers a memorable experience.",
    "themes": [
      "Gourmet"
    ],
    "mealType": "lunch",
    "estimatedDuration": 114
  },
  {
    "id": "osm-node-1777791735",
    "name": "Any Pizza",
    "nameKo": "Any Pizza",
    "type": "restaurant",
    "lat": 36.3360005,
    "lng": 127.4471326,
    "isIndoor": false,
    "description": "A popular dining spot in Daejeon. Any Pizza offers a memorable experience.",
    "themes": [
      "Gourmet"
    ],
    "mealType": "dinner",
    "estimatedDuration": 109
  },
  {
    "id": "osm-node-1822739812",
    "name": "(Kimbap Heaven)",
    "nameKo": "(Kimbap Heaven)",
    "type": "restaurant",
    "lat": 36.3435611,
    "lng": 127.4415924,
    "isIndoor": true,
    "description": "Local favorite restaurant in Daejeon. (Kimbap Heaven) offers a memorable experience.",
    "themes": [
      "Gourmet"
    ],
    "mealType": "lunch",
    "estimatedDuration": 87
  },
  {
    "id": "osm-node-1892848031",
    "name": "더랜치펍",
    "nameKo": "더랜치펍",
    "type": "bar",
    "lat": 36.3627386,
    "lng": 127.3522603,
    "isIndoor": false,
    "description": "Great for a relaxed evening in Daejeon. 더랜치펍 offers a memorable experience.",
    "themes": [
      "Nightlife",
      "Gourmet"
    ],
    "mealType": "dinner",
    "estimatedDuration": 111
  },
  {
    "id": "osm-node-1906782177",
    "name": "Play Burger",
    "nameKo": "Play Burger",
    "type": "restaurant",
    "lat": 36.3556722,
    "lng": 127.3782929,
    "isIndoor": false,
    "description": "Great food and atmosphere in Daejeon. Play Burger offers a memorable experience.",
    "themes": [
      "Gourmet",
      "Healing"
    ],
    "mealType": "lunch",
    "estimatedDuration": 80
  },
  {
    "id": "osm-node-1908338137",
    "name": "House Grill",
    "nameKo": "House Grill",
    "type": "restaurant",
    "lat": 36.3397512,
    "lng": 127.390375,
    "isIndoor": true,
    "description": "Great food and atmosphere in Daejeon. House Grill offers a memorable experience.",
    "themes": [
      "Gourmet",
      "Healing"
    ],
    "mealType": "dinner",
    "estimatedDuration": 64
  },
  {
    "id": "osm-node-1924839407",
    "name": "가오도서관",
    "nameKo": "가오도서관",
    "type": "culture",
    "lat": 36.3123898,
    "lng": 127.4550164,
    "isIndoor": false,
    "description": "Artistic and cultural vibe in Daejeon. 가오도서관 offers a memorable experience.",
    "themes": [
      "Intellectual",
      "Quiet"
    ],
    "mealType": null,
    "estimatedDuration": 40
  },
  {
    "id": "osm-node-1924840175",
    "name": "파리바게트 (Paris Baguette)",
    "nameKo": "파리바게트 (Paris Baguette)",
    "type": "cafe",
    "lat": 36.3107486,
    "lng": 127.4572447,
    "isIndoor": false,
    "description": "Cozy coffee shop in Daejeon. 파리바게트 (Paris Baguette) offers a memorable experience.",
    "themes": [
      "Gourmet"
    ],
    "mealType": "cafe",
    "estimatedDuration": 73
  },
  {
    "id": "osm-node-2060619287",
    "name": "카이마루(북측 카페테리아)",
    "nameKo": "카이마루(북측 카페테리아)",
    "type": "restaurant",
    "lat": 36.3738903,
    "lng": 127.3592187,
    "isIndoor": true,
    "description": "Great food and atmosphere in Daejeon. 카이마루(북측 카페테리아) offers a memorable experience.",
    "themes": [
      "Gourmet"
    ],
    "mealType": "lunch",
    "estimatedDuration": 109
  },
  {
    "id": "osm-node-2060619288",
    "name": "태울관 뚝배기",
    "nameKo": "태울관 뚝배기",
    "type": "restaurant",
    "lat": 36.373091,
    "lng": 127.35998,
    "isIndoor": false,
    "description": "A popular dining spot in Daejeon. 태울관 뚝배기 offers a memorable experience.",
    "themes": [
      "Gourmet"
    ],
    "mealType": "lunch",
    "estimatedDuration": 71
  },
  {
    "id": "osm-node-2060619289",
    "name": "Quiznos",
    "nameKo": "Quiznos",
    "type": "restaurant",
    "lat": 36.3733678,
    "lng": 127.3604533,
    "isIndoor": true,
    "description": "A popular dining spot in Daejeon. Quiznos offers a memorable experience.",
    "themes": [
      "Gourmet"
    ],
    "mealType": "dinner",
    "estimatedDuration": 109
  },
  {
    "id": "osm-node-2195182824",
    "name": "Wa Bar",
    "nameKo": "Wa Bar",
    "type": "bar",
    "lat": 36.3266978,
    "lng": 127.4251605,
    "isIndoor": true,
    "description": "Perfect for a night out in Daejeon. Wa Bar offers a memorable experience.",
    "themes": [
      "Nightlife",
      "Gourmet"
    ],
    "mealType": "dinner",
    "estimatedDuration": 105
  },
  {
    "id": "osm-node-2340007203",
    "name": "곰에스프레소(Gom Espresso) 관저본점",
    "nameKo": "곰에스프레소 관저본점",
    "type": "cafe",
    "lat": 36.2993961,
    "lng": 127.3357353,
    "isIndoor": true,
    "description": "Cozy coffee shop in Daejeon. 곰에스프레소(Gom Espresso) 관저본점 offers a memorable experience.",
    "themes": [
      "Gourmet"
    ],
    "mealType": "cafe",
    "estimatedDuration": 92
  },
  {
    "id": "osm-node-2344648321",
    "name": "angel-in-us 대전배재대점",
    "nameKo": "angel-in-us 대전배재대점",
    "type": "cafe",
    "lat": 36.322291,
    "lng": 127.3703619,
    "isIndoor": true,
    "description": "Charming cafe atmosphere in Daejeon. angel-in-us 대전배재대점 offers a memorable experience.",
    "themes": [
      "Gourmet"
    ],
    "mealType": "cafe",
    "estimatedDuration": 50
  },
  {
    "id": "osm-node-2344666724",
    "name": "배재대학교 스포렉스홀",
    "nameKo": "배재대학교 스포렉스홀",
    "type": "culture",
    "lat": 36.3220553,
    "lng": 127.3670736,
    "isIndoor": true,
    "description": "Artistic and cultural vibe in Daejeon. 배재대학교 스포렉스홀 offers a memorable experience.",
    "themes": [
      "Intellectual",
      "Quiet"
    ],
    "mealType": null,
    "estimatedDuration": 42
  },
  {
    "id": "osm-node-2344666725",
    "name": "Cafe Cloud",
    "nameKo": "카페클라우드",
    "type": "cafe",
    "lat": 36.3224708,
    "lng": 127.3714471,
    "isIndoor": true,
    "description": "Perfect for a relaxing break in Daejeon. Cafe Cloud offers a memorable experience.",
    "themes": [
      "Gourmet",
      "Healing"
    ],
    "mealType": "cafe",
    "estimatedDuration": 89
  },
  {
    "id": "osm-node-2344666729",
    "name": "이모네감자탕",
    "nameKo": "이모네감자탕",
    "type": "restaurant",
    "lat": 36.3228571,
    "lng": 127.3736336,
    "isIndoor": true,
    "description": "Great food and atmosphere in Daejeon. 이모네감자탕 offers a memorable experience.",
    "themes": [
      "Gourmet",
      "Healing"
    ],
    "mealType": "lunch",
    "estimatedDuration": 98
  },
  {
    "id": "osm-node-2350335491",
    "name": "곰에스프레소 (GomEspresso) 정림점",
    "nameKo": "곰에스프레소",
    "type": "cafe",
    "lat": 36.3056727,
    "lng": 127.3656913,
    "isIndoor": true,
    "description": "Charming cafe atmosphere in Daejeon. 곰에스프레소 (GomEspresso) 정림점 offers a memorable experience.",
    "themes": [
      "Gourmet"
    ],
    "mealType": "cafe",
    "estimatedDuration": 105
  },
  {
    "id": "osm-node-2350335495",
    "name": "곰에스프레소 (Gomespresso) 오룡역점",
    "nameKo": "곰에스프레소",
    "type": "cafe",
    "lat": 36.327417,
    "lng": 127.4054781,
    "isIndoor": true,
    "description": "Perfect for a relaxing break in Daejeon. 곰에스프레소 (Gomespresso) 오룡역점 offers a memorable experience.",
    "themes": [
      "Gourmet"
    ],
    "mealType": "cafe",
    "estimatedDuration": 109
  },
  {
    "id": "osm-node-2350335512",
    "name": "곰에스프레소 (Gomespresso) 중리점",
    "nameKo": "곰에스프레소",
    "type": "cafe",
    "lat": 36.359375,
    "lng": 127.4251537,
    "isIndoor": false,
    "description": "Charming cafe atmosphere in Daejeon. 곰에스프레소 (Gomespresso) 중리점 offers a memorable experience.",
    "themes": [
      "Gourmet",
      "Healing"
    ],
    "mealType": "cafe",
    "estimatedDuration": 68
  },
  {
    "id": "osm-node-2410080938",
    "name": "Tom N Toms",
    "nameKo": "탐앤탐스",
    "type": "cafe",
    "lat": 36.374117,
    "lng": 127.3653248,
    "isIndoor": false,
    "description": "Charming cafe atmosphere in Daejeon. Tom N Toms offers a memorable experience.",
    "themes": [
      "Gourmet"
    ],
    "mealType": "cafe",
    "estimatedDuration": 51
  },
  {
    "id": "osm-node-2451333070",
    "name": "쏘쎄바게트",
    "nameKo": "쏘쎄바게트",
    "type": "restaurant",
    "lat": 36.3628443,
    "lng": 127.3518621,
    "isIndoor": false,
    "description": "Great food and atmosphere in Daejeon. 쏘쎄바게트 offers a memorable experience.",
    "themes": [
      "Gourmet",
      "Healing"
    ],
    "mealType": "dinner",
    "estimatedDuration": 109
  },
  {
    "id": "osm-node-2924434306",
    "name": "Grazie",
    "nameKo": "그라찌에",
    "type": "cafe",
    "lat": 36.3682916,
    "lng": 127.3634794,
    "isIndoor": false,
    "description": "Cozy coffee shop in Daejeon. Grazie offers a memorable experience.",
    "themes": [
      "Gourmet"
    ],
    "mealType": "cafe",
    "estimatedDuration": 109
  },
  {
    "id": "osm-node-2924434307",
    "name": "CAFE EAT",
    "nameKo": "CAFE EAT",
    "type": "cafe",
    "lat": 36.3675838,
    "lng": 127.3604493,
    "isIndoor": true,
    "description": "Cozy coffee shop in Daejeon. CAFE EAT offers a memorable experience.",
    "themes": [
      "Gourmet"
    ],
    "mealType": "cafe",
    "estimatedDuration": 34
  },
  {
    "id": "osm-node-2924455042",
    "name": "DDDN Pizza",
    "nameKo": "DDDN Pizza",
    "type": "restaurant",
    "lat": 36.3673425,
    "lng": 127.3609645,
    "isIndoor": false,
    "description": "A popular dining spot in Daejeon. DDDN Pizza offers a memorable experience.",
    "themes": [
      "Gourmet"
    ],
    "mealType": "lunch",
    "estimatedDuration": 100
  },
  {
    "id": "osm-node-3714943688",
    "name": "Advanced Science and Technology Center",
    "nameKo": "Advanced Science and Technology Center",
    "type": "culture",
    "lat": 36.3767711,
    "lng": 127.3871902,
    "isIndoor": true,
    "description": "Perfect for a quiet date in Daejeon. Advanced Science and Technology Center offers a memorable experience.",
    "themes": [
      "Intellectual",
      "Quiet"
    ],
    "mealType": null,
    "estimatedDuration": 32
  },
  {
    "id": "osm-node-3714943689",
    "name": "세계엑스포기념품박물관",
    "nameKo": "세계엑스포기념품박물관",
    "type": "culture",
    "lat": 36.3769388,
    "lng": 127.3887329,
    "isIndoor": true,
    "description": "Inspiring cultural space in Daejeon. 세계엑스포기념품박물관 offers a memorable experience.",
    "themes": [
      "Intellectual",
      "Quiet"
    ],
    "mealType": null,
    "estimatedDuration": 114
  },
  {
    "id": "osm-node-3714943690",
    "name": "대전통일관",
    "nameKo": "대전통일관",
    "type": "culture",
    "lat": 36.3763979,
    "lng": 127.388822,
    "isIndoor": true,
    "description": "Inspiring cultural space in Daejeon. 대전통일관 offers a memorable experience.",
    "themes": [
      "Intellectual",
      "Quiet"
    ],
    "mealType": null,
    "estimatedDuration": 56
  },
  {
    "id": "osm-node-4191566389",
    "name": "Green Brownie",
    "nameKo": "Green Brownie",
    "type": "cafe",
    "lat": 36.3777199,
    "lng": 127.3921812,
    "isIndoor": true,
    "description": "Perfect for a relaxing break in Daejeon. Green Brownie offers a memorable experience.",
    "themes": [
      "Gourmet"
    ],
    "mealType": "cafe",
    "estimatedDuration": 63
  },
  {
    "id": "osm-node-4322706328",
    "name": "고기전문집 고향에맛",
    "nameKo": "고기전문집 고향에맛",
    "type": "restaurant",
    "lat": 36.3396345,
    "lng": 127.4487854,
    "isIndoor": true,
    "description": "A popular dining spot in Daejeon. 고기전문집 고향에맛 offers a memorable experience.",
    "themes": [
      "Gourmet"
    ],
    "mealType": "dinner",
    "estimatedDuration": 73
  },
  {
    "id": "osm-node-4408296577",
    "name": "Chayhana",
    "nameKo": "Chayhana",
    "type": "restaurant",
    "lat": 36.3379481,
    "lng": 127.4526925,
    "isIndoor": true,
    "description": "A popular dining spot in Daejeon. Chayhana offers a memorable experience.",
    "themes": [
      "Gourmet"
    ],
    "mealType": "lunch",
    "estimatedDuration": 72
  },
  {
    "id": "osm-node-4408878614",
    "name": "Homeplus",
    "nameKo": "홈플러스",
    "type": "shopping",
    "lat": 36.3138662,
    "lng": 127.3190466,
    "isIndoor": false,
    "description": "Indoor date-friendly mall in Daejeon. Homeplus offers a memorable experience.",
    "themes": [
      "Indoor",
      "Shopping"
    ],
    "mealType": null,
    "estimatedDuration": 63
  },
  {
    "id": "osm-node-4444046863",
    "name": "Garten Bier",
    "nameKo": "Garten Bier",
    "type": "bar",
    "lat": 36.3589999,
    "lng": 127.3885952,
    "isIndoor": true,
    "description": "Great for a relaxed evening in Daejeon. Garten Bier offers a memorable experience.",
    "themes": [
      "Nightlife",
      "Gourmet"
    ],
    "mealType": "dinner",
    "estimatedDuration": 33
  },
  {
    "id": "osm-node-4449948189",
    "name": "Korean BBQ",
    "nameKo": "Korean BBQ",
    "type": "restaurant",
    "lat": 36.3522132,
    "lng": 127.3809724,
    "isIndoor": false,
    "description": "Local favorite restaurant in Daejeon. Korean BBQ offers a memorable experience.",
    "themes": [
      "Gourmet",
      "Healing"
    ],
    "mealType": "lunch",
    "estimatedDuration": 75
  },
  {
    "id": "osm-node-4553540689",
    "name": "오발탄만년점",
    "nameKo": "오발탄만년점",
    "type": "restaurant",
    "lat": 36.3671565,
    "lng": 127.3820849,
    "isIndoor": false,
    "description": "A popular dining spot in Daejeon. 오발탄만년점 offers a memorable experience.",
    "themes": [
      "Gourmet",
      "Healing"
    ],
    "mealType": "dinner",
    "estimatedDuration": 69
  },
  {
    "id": "osm-node-4629011090",
    "name": "황태곰탕",
    "nameKo": "황태곰탕",
    "type": "restaurant",
    "lat": 36.3854961,
    "lng": 127.3770263,
    "isIndoor": true,
    "description": "Local favorite restaurant in Daejeon. 황태곰탕 offers a memorable experience.",
    "themes": [
      "Gourmet",
      "Healing"
    ],
    "mealType": "dinner",
    "estimatedDuration": 63
  },
  {
    "id": "osm-node-4631000812",
    "name": "Caffè Pascucci",
    "nameKo": "파스쿠치",
    "type": "cafe",
    "lat": 36.3686502,
    "lng": 127.3645803,
    "isIndoor": true,
    "description": "Cozy coffee shop in Daejeon. Caffè Pascucci offers a memorable experience.",
    "themes": [
      "Gourmet"
    ],
    "mealType": "cafe",
    "estimatedDuration": 52
  },
  {
    "id": "osm-node-4631140658",
    "name": "이화수 유성본점",
    "nameKo": "이화수 유성본점",
    "type": "restaurant",
    "lat": 36.3525344,
    "lng": 127.3405766,
    "isIndoor": true,
    "description": "Local favorite restaurant in Daejeon. 이화수 유성본점 offers a memorable experience.",
    "themes": [
      "Gourmet",
      "Healing"
    ],
    "mealType": "lunch",
    "estimatedDuration": 116
  },
  {
    "id": "osm-node-4631146917",
    "name": "CGV유성온천점",
    "nameKo": "CGV유성온천점",
    "type": "activity",
    "lat": 36.3524106,
    "lng": 127.3446406,
    "isIndoor": true,
    "description": "Great for an active date in Daejeon. CGV유성온천점 offers a memorable experience.",
    "themes": [
      "Activity"
    ],
    "mealType": null,
    "estimatedDuration": 48
  },
  {
    "id": "osm-node-4631163327",
    "name": "밥버거",
    "nameKo": "밥버거",
    "type": "restaurant",
    "lat": 36.3238019,
    "lng": 127.4262277,
    "isIndoor": true,
    "description": "Local favorite restaurant in Daejeon. 밥버거 offers a memorable experience.",
    "themes": [
      "Gourmet"
    ],
    "mealType": "dinner",
    "estimatedDuration": 92
  },
  {
    "id": "osm-node-4631163329",
    "name": "월산본가",
    "nameKo": "월산본가",
    "type": "restaurant",
    "lat": 36.325323,
    "lng": 127.4276167,
    "isIndoor": true,
    "description": "Great food and atmosphere in Daejeon. 월산본가 offers a memorable experience.",
    "themes": [
      "Gourmet"
    ],
    "mealType": "lunch",
    "estimatedDuration": 106
  },
  {
    "id": "osm-node-4631163332",
    "name": "카페",
    "nameKo": "카페",
    "type": "cafe",
    "lat": 36.324301,
    "lng": 127.4265137,
    "isIndoor": true,
    "description": "Charming cafe atmosphere in Daejeon. 카페 offers a memorable experience.",
    "themes": [
      "Gourmet",
      "Healing"
    ],
    "mealType": "cafe",
    "estimatedDuration": 30
  },
  {
    "id": "osm-node-4631163334",
    "name": "빵가게",
    "nameKo": "빵가게",
    "type": "cafe",
    "lat": 36.3214365,
    "lng": 127.4287324,
    "isIndoor": true,
    "description": "Charming cafe atmosphere in Daejeon. 빵가게 offers a memorable experience.",
    "themes": [
      "Gourmet"
    ],
    "mealType": "cafe",
    "estimatedDuration": 108
  },
  {
    "id": "osm-node-4631163343",
    "name": "극동제과",
    "nameKo": "극동제과",
    "type": "cafe",
    "lat": 36.317303,
    "lng": 127.4258305,
    "isIndoor": true,
    "description": "Perfect for a relaxing break in Daejeon. 극동제과 offers a memorable experience.",
    "themes": [
      "Gourmet"
    ],
    "mealType": "cafe",
    "estimatedDuration": 94
  },
  {
    "id": "osm-node-4631163344",
    "name": "처갓집",
    "nameKo": "처갓집",
    "type": "restaurant",
    "lat": 36.3172541,
    "lng": 127.4257911,
    "isIndoor": false,
    "description": "A popular dining spot in Daejeon. 처갓집 offers a memorable experience.",
    "themes": [
      "Gourmet"
    ],
    "mealType": "dinner",
    "estimatedDuration": 62
  },
  {
    "id": "osm-node-4631163346",
    "name": "또래오래",
    "nameKo": "또래오래",
    "type": "restaurant",
    "lat": 36.3172169,
    "lng": 127.4257005,
    "isIndoor": true,
    "description": "Great food and atmosphere in Daejeon. 또래오래 offers a memorable experience.",
    "themes": [
      "Gourmet"
    ],
    "mealType": "dinner",
    "estimatedDuration": 103
  },
  {
    "id": "osm-node-4631163358",
    "name": "어린이미래도서관",
    "nameKo": "어린이미래도서관",
    "type": "culture",
    "lat": 36.3189021,
    "lng": 127.42454,
    "isIndoor": true,
    "description": "Inspiring cultural space in Daejeon. 어린이미래도서관 offers a memorable experience.",
    "themes": [
      "Intellectual",
      "Quiet"
    ],
    "mealType": null,
    "estimatedDuration": 33
  },
  {
    "id": "osm-node-4631163363",
    "name": "태창청바지센타 태창의류직매장",
    "nameKo": "태창청바지센타 태창의류직매장",
    "type": "shopping",
    "lat": 36.3170934,
    "lng": 127.4253299,
    "isIndoor": true,
    "description": "Great for browsing in Daejeon. 태창청바지센타 태창의류직매장 offers a memorable experience.",
    "themes": [
      "Indoor",
      "Shopping"
    ],
    "mealType": null,
    "estimatedDuration": 80
  },
  {
    "id": "osm-node-4634045652",
    "name": "BBQ",
    "nameKo": "BBQ",
    "type": "restaurant",
    "lat": 36.3426137,
    "lng": 127.3780963,
    "isIndoor": false,
    "description": "Great food and atmosphere in Daejeon. BBQ offers a memorable experience.",
    "themes": [
      "Gourmet"
    ],
    "mealType": "lunch",
    "estimatedDuration": 107
  },
  {
    "id": "osm-node-4634046003",
    "name": "천냥김밥",
    "nameKo": "천냥김밥",
    "type": "restaurant",
    "lat": 36.3425319,
    "lng": 127.3783543,
    "isIndoor": false,
    "description": "Local favorite restaurant in Daejeon. 천냥김밥 offers a memorable experience.",
    "themes": [
      "Gourmet"
    ],
    "mealType": "dinner",
    "estimatedDuration": 117
  },
  {
    "id": "osm-node-4634132665",
    "name": "스타벅스",
    "nameKo": "스타벅스",
    "type": "cafe",
    "lat": 36.399528,
    "lng": 127.400476,
    "isIndoor": false,
    "description": "Perfect for a relaxing break in Daejeon. 스타벅스 offers a memorable experience.",
    "themes": [
      "Gourmet"
    ],
    "mealType": "cafe",
    "estimatedDuration": 64
  },
  {
    "id": "osm-node-4634725561",
    "name": "Sulbing",
    "nameKo": "설빙",
    "type": "cafe",
    "lat": 36.3179412,
    "lng": 127.392743,
    "isIndoor": false,
    "description": "Cozy coffee shop in Daejeon. Sulbing offers a memorable experience.",
    "themes": [
      "Gourmet"
    ],
    "mealType": "cafe",
    "estimatedDuration": 112
  },
  {
    "id": "osm-node-4634725566",
    "name": "롯데리아",
    "nameKo": "롯데리아",
    "type": "restaurant",
    "lat": 36.3194704,
    "lng": 127.3926162,
    "isIndoor": true,
    "description": "Local favorite restaurant in Daejeon. 롯데리아 offers a memorable experience.",
    "themes": [
      "Gourmet",
      "Healing"
    ],
    "mealType": "dinner",
    "estimatedDuration": 61
  },
  {
    "id": "osm-node-4634725567",
    "name": "토즈 독서실",
    "nameKo": "토즈 독서실",
    "type": "culture",
    "lat": 36.3195417,
    "lng": 127.3925974,
    "isIndoor": false,
    "description": "Perfect for a quiet date in Daejeon. 토즈 독서실 offers a memorable experience.",
    "themes": [
      "Intellectual",
      "Quiet"
    ],
    "mealType": null,
    "estimatedDuration": 47
  },
  {
    "id": "osm-node-4634725568",
    "name": "얌스",
    "nameKo": "얌스",
    "type": "restaurant",
    "lat": 36.3197254,
    "lng": 127.3926859,
    "isIndoor": false,
    "description": "Local favorite restaurant in Daejeon. 얌스 offers a memorable experience.",
    "themes": [
      "Gourmet"
    ],
    "mealType": "lunch",
    "estimatedDuration": 86
  },
  {
    "id": "osm-node-4634725569",
    "name": "고봉민김밥",
    "nameKo": "고봉민김밥",
    "type": "restaurant",
    "lat": 36.3196714,
    "lng": 127.3926242,
    "isIndoor": true,
    "description": "Great food and atmosphere in Daejeon. 고봉민김밥 offers a memorable experience.",
    "themes": [
      "Gourmet"
    ],
    "mealType": "dinner",
    "estimatedDuration": 76
  },
  {
    "id": "osm-node-4634804403",
    "name": "교보문고 대전점",
    "nameKo": "교보문고",
    "type": "shopping",
    "lat": 36.3526405,
    "lng": 127.3799353,
    "isIndoor": true,
    "description": "Shopping destination in Daejeon. 교보문고 대전점 offers a memorable experience.",
    "themes": [
      "Indoor",
      "Shopping",
      "Quiet",
      "Intellectual"
    ],
    "mealType": null,
    "estimatedDuration": 51
  },
  {
    "id": "osm-node-4634875182",
    "name": "대감막창",
    "nameKo": "대감막창",
    "type": "restaurant",
    "lat": 36.3988681,
    "lng": 127.4030079,
    "isIndoor": true,
    "description": "Great food and atmosphere in Daejeon. 대감막창 offers a memorable experience.",
    "themes": [
      "Gourmet"
    ],
    "mealType": "lunch",
    "estimatedDuration": 113
  },
  {
    "id": "osm-node-4634875185",
    "name": "배불러 활어회",
    "nameKo": "배불러 활어회",
    "type": "restaurant",
    "lat": 36.398734,
    "lng": 127.4032112,
    "isIndoor": true,
    "description": "A popular dining spot in Daejeon. 배불러 활어회 offers a memorable experience.",
    "themes": [
      "Gourmet",
      "Healing"
    ],
    "mealType": "dinner",
    "estimatedDuration": 80
  },
  {
    "id": "osm-node-4634875186",
    "name": "한방삼계탕",
    "nameKo": "한방삼계탕",
    "type": "restaurant",
    "lat": 36.3987084,
    "lng": 127.4034917,
    "isIndoor": true,
    "description": "Local favorite restaurant in Daejeon. 한방삼계탕 offers a memorable experience.",
    "themes": [
      "Gourmet"
    ],
    "mealType": "dinner",
    "estimatedDuration": 79
  },
  {
    "id": "osm-node-4634923227",
    "name": "일등독서실",
    "nameKo": "일등독서실",
    "type": "culture",
    "lat": 36.3439467,
    "lng": 127.3692048,
    "isIndoor": true,
    "description": "Inspiring cultural space in Daejeon. 일등독서실 offers a memorable experience.",
    "themes": [
      "Intellectual",
      "Quiet"
    ],
    "mealType": null,
    "estimatedDuration": 119
  },
  {
    "id": "osm-node-4636893938",
    "name": "투썸플레이스",
    "nameKo": "투썸플레이스",
    "type": "cafe",
    "lat": 36.3998144,
    "lng": 127.3972373,
    "isIndoor": true,
    "description": "Perfect for a relaxing break in Daejeon. 투썸플레이스 offers a memorable experience.",
    "themes": [
      "Gourmet"
    ],
    "mealType": "cafe",
    "estimatedDuration": 55
  },
  {
    "id": "osm-node-4636894096",
    "name": "책방 거듭나기",
    "nameKo": "책방 거듭나기",
    "type": "shopping",
    "lat": 36.398301,
    "lng": 127.4004854,
    "isIndoor": true,
    "description": "Indoor date-friendly mall in Daejeon. 책방 거듭나기 offers a memorable experience.",
    "themes": [
      "Indoor",
      "Shopping",
      "Quiet",
      "Intellectual"
    ],
    "mealType": null,
    "estimatedDuration": 97
  },
  {
    "id": "osm-node-4636894097",
    "name": "봉구스 밥버거",
    "nameKo": "봉구스 밥버거",
    "type": "restaurant",
    "lat": 36.3979599,
    "lng": 127.400464,
    "isIndoor": true,
    "description": "Local favorite restaurant in Daejeon. 봉구스 밥버거 offers a memorable experience.",
    "themes": [
      "Gourmet"
    ],
    "mealType": "dinner",
    "estimatedDuration": 63
  },
  {
    "id": "osm-node-4636894104",
    "name": "퀸호프",
    "nameKo": "퀸호프",
    "type": "bar",
    "lat": 36.3990502,
    "lng": 127.4011613,
    "isIndoor": false,
    "description": "Casual nightlife spot in Daejeon. 퀸호프 offers a memorable experience.",
    "themes": [
      "Nightlife",
      "Gourmet"
    ],
    "mealType": "dinner",
    "estimatedDuration": 40
  },
  {
    "id": "osm-node-4636894105",
    "name": "소달구지",
    "nameKo": "소달구지",
    "type": "restaurant",
    "lat": 36.3990134,
    "lng": 127.4013813,
    "isIndoor": false,
    "description": "A popular dining spot in Daejeon. 소달구지 offers a memorable experience.",
    "themes": [
      "Gourmet",
      "Healing"
    ],
    "mealType": "dinner",
    "estimatedDuration": 74
  },
  {
    "id": "osm-node-4636894107",
    "name": "맘스터치",
    "nameKo": "맘스터치",
    "type": "restaurant",
    "lat": 36.399428,
    "lng": 127.4022342,
    "isIndoor": true,
    "description": "Local favorite restaurant in Daejeon. 맘스터치 offers a memorable experience.",
    "themes": [
      "Gourmet"
    ],
    "mealType": "lunch",
    "estimatedDuration": 104
  },
  {
    "id": "osm-node-4636894109",
    "name": "슬로우 브레드",
    "nameKo": "슬로우 브레드",
    "type": "cafe",
    "lat": 36.3994338,
    "lng": 127.4018069,
    "isIndoor": false,
    "description": "Perfect for a relaxing break in Daejeon. 슬로우 브레드 offers a memorable experience.",
    "themes": [
      "Gourmet"
    ],
    "mealType": "cafe",
    "estimatedDuration": 54
  },
  {
    "id": "osm-node-4639517707",
    "name": "삐아체",
    "nameKo": "삐아체",
    "type": "restaurant",
    "lat": 36.4001205,
    "lng": 127.4059813,
    "isIndoor": true,
    "description": "A popular dining spot in Daejeon. 삐아체 offers a memorable experience.",
    "themes": [
      "Gourmet"
    ],
    "mealType": "lunch",
    "estimatedDuration": 106
  },
  {
    "id": "osm-node-4639517708",
    "name": "엑스포코아김밥",
    "nameKo": "엑스포코아김밥",
    "type": "restaurant",
    "lat": 36.399999,
    "lng": 127.4055438,
    "isIndoor": true,
    "description": "Local favorite restaurant in Daejeon. 엑스포코아김밥 offers a memorable experience.",
    "themes": [
      "Gourmet"
    ],
    "mealType": "dinner",
    "estimatedDuration": 77
  },
  {
    "id": "osm-node-4639517724",
    "name": "미소야 (전민점)",
    "nameKo": "미소야 (전민점)",
    "type": "restaurant",
    "lat": 36.3992173,
    "lng": 127.4043019,
    "isIndoor": true,
    "description": "Local favorite restaurant in Daejeon. 미소야 (전민점) offers a memorable experience.",
    "themes": [
      "Gourmet"
    ],
    "mealType": "dinner",
    "estimatedDuration": 87
  },
  {
    "id": "osm-node-4639618864",
    "name": "던킨도너츠 전민점",
    "nameKo": "던킨도너츠 전민점",
    "type": "restaurant",
    "lat": 36.3994197,
    "lng": 127.4040699,
    "isIndoor": true,
    "description": "Local favorite restaurant in Daejeon. 던킨도너츠 전민점 offers a memorable experience.",
    "themes": [
      "Gourmet",
      "Healing"
    ],
    "mealType": "dinner",
    "estimatedDuration": 118
  },
  {
    "id": "osm-node-4639777018",
    "name": "북경 (구 청해루)",
    "nameKo": "북경 (구 청해루)",
    "type": "restaurant",
    "lat": 36.3992154,
    "lng": 127.4013414,
    "isIndoor": true,
    "description": "A popular dining spot in Daejeon. 북경 (구 청해루) offers a memorable experience.",
    "themes": [
      "Gourmet",
      "Healing"
    ],
    "mealType": "lunch",
    "estimatedDuration": 108
  },
  {
    "id": "osm-node-4641372221",
    "name": "상훈바",
    "nameKo": "상훈바",
    "type": "bar",
    "lat": 36.3476547,
    "lng": 127.4303685,
    "isIndoor": true,
    "description": "Great for a relaxed evening in Daejeon. 상훈바 offers a memorable experience.",
    "themes": [
      "Nightlife",
      "Gourmet"
    ],
    "mealType": "dinner",
    "estimatedDuration": 55
  },
  {
    "id": "osm-node-4643402726",
    "name": "구봉중 급식실",
    "nameKo": "구봉중 급식실",
    "type": "restaurant",
    "lat": 36.3001912,
    "lng": 127.3302966,
    "isIndoor": false,
    "description": "Local favorite restaurant in Daejeon. 구봉중 급식실 offers a memorable experience.",
    "themes": [
      "Gourmet"
    ],
    "mealType": "dinner",
    "estimatedDuration": 95
  },
  {
    "id": "osm-node-4643671275",
    "name": "들풀 메밀막국수&숯불갈비",
    "nameKo": "들풀 메밀막국수&숯불갈비",
    "type": "restaurant",
    "lat": 36.2957181,
    "lng": 127.3351474,
    "isIndoor": true,
    "description": "Local favorite restaurant in Daejeon. 들풀 메밀막국수&숯불갈비 offers a memorable experience.",
    "themes": [
      "Gourmet"
    ],
    "mealType": "lunch",
    "estimatedDuration": 61
  },
  {
    "id": "osm-node-4644576513",
    "name": "왕손곱창",
    "nameKo": "왕손곱창",
    "type": "restaurant",
    "lat": 36.3673028,
    "lng": 127.4118842,
    "isIndoor": true,
    "description": "Local favorite restaurant in Daejeon. 왕손곱창 offers a memorable experience.",
    "themes": [
      "Gourmet"
    ],
    "mealType": "dinner",
    "estimatedDuration": 115
  },
  {
    "id": "osm-node-4646826437",
    "name": "대전문학관",
    "nameKo": "대전문학관",
    "type": "culture",
    "lat": 36.3566441,
    "lng": 127.4372059,
    "isIndoor": true,
    "description": "Perfect for a quiet date in Daejeon. 대전문학관 offers a memorable experience.",
    "themes": [
      "Intellectual",
      "Quiet"
    ],
    "mealType": null,
    "estimatedDuration": 117
  },
  {
    "id": "osm-node-4646857155",
    "name": "영풍문고",
    "nameKo": "영풍문고",
    "type": "shopping",
    "lat": 36.3511536,
    "lng": 127.437496,
    "isIndoor": true,
    "description": "Great for browsing in Daejeon. 영풍문고 offers a memorable experience.",
    "themes": [
      "Indoor",
      "Shopping",
      "Quiet",
      "Intellectual"
    ],
    "mealType": null,
    "estimatedDuration": 34
  },
  {
    "id": "osm-node-4646863389",
    "name": "신세계 스타일마켓",
    "nameKo": "신세계 스타일마켓",
    "type": "shopping",
    "lat": 36.3503956,
    "lng": 127.4371505,
    "isIndoor": true,
    "description": "Indoor date-friendly mall in Daejeon. 신세계 스타일마켓 offers a memorable experience.",
    "themes": [
      "Indoor",
      "Shopping"
    ],
    "mealType": null,
    "estimatedDuration": 69
  },
  {
    "id": "osm-node-4654974910",
    "name": "스타벅스(엑스포점)",
    "nameKo": "스타벅스",
    "type": "cafe",
    "lat": 36.3764484,
    "lng": 127.3911632,
    "isIndoor": true,
    "description": "Charming cafe atmosphere in Daejeon. 스타벅스(엑스포점) offers a memorable experience.",
    "themes": [
      "Gourmet",
      "Healing"
    ],
    "mealType": "cafe",
    "estimatedDuration": 100
  },
  {
    "id": "osm-node-4654974911",
    "name": "커피베이(조이마루점)",
    "nameKo": "커피베이(조이마루점)",
    "type": "cafe",
    "lat": 36.3763764,
    "lng": 127.3908908,
    "isIndoor": false,
    "description": "Perfect for a relaxing break in Daejeon. 커피베이(조이마루점) offers a memorable experience.",
    "themes": [
      "Gourmet",
      "Healing"
    ],
    "mealType": "cafe",
    "estimatedDuration": 119
  },
  {
    "id": "osm-node-4654974912",
    "name": "비에이치씨",
    "nameKo": "비에이치씨",
    "type": "restaurant",
    "lat": 36.3764616,
    "lng": 127.3907638,
    "isIndoor": true,
    "description": "Great food and atmosphere in Daejeon. 비에이치씨 offers a memorable experience.",
    "themes": [
      "Gourmet"
    ],
    "mealType": "lunch",
    "estimatedDuration": 107
  },
  {
    "id": "osm-node-4662933494",
    "name": "BHC 전민점",
    "nameKo": "BHC 전민점",
    "type": "restaurant",
    "lat": 36.40193,
    "lng": 127.4065535,
    "isIndoor": true,
    "description": "Local favorite restaurant in Daejeon. BHC 전민점 offers a memorable experience.",
    "themes": [
      "Gourmet"
    ],
    "mealType": "lunch",
    "estimatedDuration": 91
  },
  {
    "id": "osm-node-4662933495",
    "name": "박군치킨 전민점",
    "nameKo": "박군치킨 전민점",
    "type": "restaurant",
    "lat": 36.4006805,
    "lng": 127.4085458,
    "isIndoor": true,
    "description": "Great food and atmosphere in Daejeon. 박군치킨 전민점 offers a memorable experience.",
    "themes": [
      "Gourmet"
    ],
    "mealType": "dinner",
    "estimatedDuration": 106
  },
  {
    "id": "osm-node-4662933502",
    "name": "해원횟집",
    "nameKo": "해원횟집",
    "type": "restaurant",
    "lat": 36.3995234,
    "lng": 127.4001252,
    "isIndoor": true,
    "description": "Local favorite restaurant in Daejeon. 해원횟집 offers a memorable experience.",
    "themes": [
      "Gourmet",
      "Healing"
    ],
    "mealType": "dinner",
    "estimatedDuration": 101
  },
  {
    "id": "osm-node-4662933504",
    "name": "사브 쌉주머니 전민점",
    "nameKo": "사브 쌉주머니 전민점",
    "type": "restaurant",
    "lat": 36.3995821,
    "lng": 127.4010398,
    "isIndoor": true,
    "description": "A popular dining spot in Daejeon. 사브 쌉주머니 전민점 offers a memorable experience.",
    "themes": [
      "Gourmet"
    ],
    "mealType": "lunch",
    "estimatedDuration": 63
  },
  {
    "id": "osm-node-4662933507",
    "name": "울엄마 양평 해장국 전민점",
    "nameKo": "울엄마 양평 해장국 전민점",
    "type": "restaurant",
    "lat": 36.3993689,
    "lng": 127.401111,
    "isIndoor": true,
    "description": "Great food and atmosphere in Daejeon. 울엄마 양평 해장국 전민점 offers a memorable experience.",
    "themes": [
      "Gourmet",
      "Healing"
    ],
    "mealType": "dinner",
    "estimatedDuration": 86
  },
  {
    "id": "osm-node-4662933508",
    "name": "어부와 해녀",
    "nameKo": "어부와 해녀",
    "type": "restaurant",
    "lat": 36.3992034,
    "lng": 127.4011288,
    "isIndoor": false,
    "description": "Local favorite restaurant in Daejeon. 어부와 해녀 offers a memorable experience.",
    "themes": [
      "Gourmet",
      "Healing"
    ],
    "mealType": "lunch",
    "estimatedDuration": 75
  },
  {
    "id": "osm-node-4662933509",
    "name": "McQueen's",
    "nameKo": "McQueen's",
    "type": "restaurant",
    "lat": 36.3990502,
    "lng": 127.4011613,
    "isIndoor": false,
    "description": "Great food and atmosphere in Daejeon. McQueen's offers a memorable experience.",
    "themes": [
      "Gourmet"
    ],
    "mealType": "lunch",
    "estimatedDuration": 91
  },
  {
    "id": "osm-node-4662933510",
    "name": "空間 (공간)",
    "nameKo": "空間 (공간)",
    "type": "restaurant",
    "lat": 36.3988708,
    "lng": 127.4011565,
    "isIndoor": true,
    "description": "A popular dining spot in Daejeon. 空間 (공간) offers a memorable experience.",
    "themes": [
      "Gourmet",
      "Healing"
    ],
    "mealType": "lunch",
    "estimatedDuration": 109
  },
  {
    "id": "osm-node-4662933511",
    "name": "지코바 숯불양념치킨",
    "nameKo": "지코바 숯불양념치킨",
    "type": "restaurant",
    "lat": 36.3988899,
    "lng": 127.4009746,
    "isIndoor": true,
    "description": "Local favorite restaurant in Daejeon. 지코바 숯불양념치킨 offers a memorable experience.",
    "themes": [
      "Gourmet",
      "Healing"
    ],
    "mealType": "lunch",
    "estimatedDuration": 65
  },
  {
    "id": "osm-node-4662933512",
    "name": "먹방 레전드",
    "nameKo": "먹방 레전드",
    "type": "restaurant",
    "lat": 36.3988756,
    "lng": 127.4008856,
    "isIndoor": true,
    "description": "Great food and atmosphere in Daejeon. 먹방 레전드 offers a memorable experience.",
    "themes": [
      "Gourmet"
    ],
    "mealType": "dinner",
    "estimatedDuration": 70
  },
  {
    "id": "osm-node-4662933513",
    "name": "굽네치킨",
    "nameKo": "굽네치킨",
    "type": "restaurant",
    "lat": 36.3991031,
    "lng": 127.4008817,
    "isIndoor": false,
    "description": "Local favorite restaurant in Daejeon. 굽네치킨 offers a memorable experience.",
    "themes": [
      "Gourmet",
      "Healing"
    ],
    "mealType": "dinner",
    "estimatedDuration": 61
  },
  {
    "id": "osm-node-4662933514",
    "name": "소담채",
    "nameKo": "소담채",
    "type": "restaurant",
    "lat": 36.3990029,
    "lng": 127.4007551,
    "isIndoor": true,
    "description": "A popular dining spot in Daejeon. 소담채 offers a memorable experience.",
    "themes": [
      "Gourmet"
    ],
    "mealType": "lunch",
    "estimatedDuration": 112
  },
  {
    "id": "osm-node-4662933517",
    "name": "바이올렛",
    "nameKo": "바이올렛",
    "type": "shopping",
    "lat": 36.398909,
    "lng": 127.4006068,
    "isIndoor": true,
    "description": "Great for browsing in Daejeon. 바이올렛 offers a memorable experience.",
    "themes": [
      "Indoor",
      "Shopping"
    ],
    "mealType": null,
    "estimatedDuration": 57
  },
  {
    "id": "osm-node-4662933518",
    "name": "스시안 すし安",
    "nameKo": "스시안 すし安",
    "type": "restaurant",
    "lat": 36.398987,
    "lng": 127.4005554,
    "isIndoor": true,
    "description": "A popular dining spot in Daejeon. 스시안 すし安 offers a memorable experience.",
    "themes": [
      "Gourmet"
    ],
    "mealType": "lunch",
    "estimatedDuration": 91
  },
  {
    "id": "osm-node-4662933521",
    "name": "나들목",
    "nameKo": "나들목",
    "type": "restaurant",
    "lat": 36.399318,
    "lng": 127.4007709,
    "isIndoor": true,
    "description": "A popular dining spot in Daejeon. 나들목 offers a memorable experience.",
    "themes": [
      "Gourmet",
      "Healing"
    ],
    "mealType": "lunch",
    "estimatedDuration": 108
  },
  {
    "id": "osm-node-4662933523",
    "name": "국수나무",
    "nameKo": "국수나무",
    "type": "restaurant",
    "lat": 36.3994729,
    "lng": 127.4016489,
    "isIndoor": true,
    "description": "A popular dining spot in Daejeon. 국수나무 offers a memorable experience.",
    "themes": [
      "Gourmet",
      "Healing"
    ],
    "mealType": "lunch",
    "estimatedDuration": 86
  },
  {
    "id": "osm-node-4662933527",
    "name": "Jun' craft 전민점",
    "nameKo": "Jun' craft 전민점",
    "type": "restaurant",
    "lat": 36.3994005,
    "lng": 127.4027311,
    "isIndoor": true,
    "description": "A popular dining spot in Daejeon. Jun' craft 전민점 offers a memorable experience.",
    "themes": [
      "Gourmet",
      "Healing"
    ],
    "mealType": "dinner",
    "estimatedDuration": 102
  },
  {
    "id": "osm-node-4662933529",
    "name": "베이커리 별",
    "nameKo": "베이커리 별",
    "type": "cafe",
    "lat": 36.3994116,
    "lng": 127.4030534,
    "isIndoor": true,
    "description": "Charming cafe atmosphere in Daejeon. 베이커리 별 offers a memorable experience.",
    "themes": [
      "Gourmet"
    ],
    "mealType": "cafe",
    "estimatedDuration": 115
  },
  {
    "id": "osm-node-4662933530",
    "name": "피자마루",
    "nameKo": "피자마루",
    "type": "restaurant",
    "lat": 36.3994689,
    "lng": 127.4029763,
    "isIndoor": true,
    "description": "Great food and atmosphere in Daejeon. 피자마루 offers a memorable experience.",
    "themes": [
      "Gourmet"
    ],
    "mealType": "lunch",
    "estimatedDuration": 103
  },
  {
    "id": "osm-node-4662933536",
    "name": "룡이네 닭강정 전민점",
    "nameKo": "룡이네 닭강정 전민점",
    "type": "restaurant",
    "lat": 36.3993655,
    "lng": 127.4040657,
    "isIndoor": true,
    "description": "A popular dining spot in Daejeon. 룡이네 닭강정 전민점 offers a memorable experience.",
    "themes": [
      "Gourmet",
      "Healing"
    ],
    "mealType": "lunch",
    "estimatedDuration": 91
  },
  {
    "id": "osm-node-4662933550",
    "name": "길상",
    "nameKo": "길상",
    "type": "restaurant",
    "lat": 36.3987289,
    "lng": 127.4043454,
    "isIndoor": false,
    "description": "Great food and atmosphere in Daejeon. 길상 offers a memorable experience.",
    "themes": [
      "Gourmet"
    ],
    "mealType": "lunch",
    "estimatedDuration": 108
  },
  {
    "id": "osm-node-4662933568",
    "name": "네네치킨 전민점",
    "nameKo": "네네치킨 전민점",
    "type": "restaurant",
    "lat": 36.3980613,
    "lng": 127.4044088,
    "isIndoor": false,
    "description": "Great food and atmosphere in Daejeon. 네네치킨 전민점 offers a memorable experience.",
    "themes": [
      "Gourmet",
      "Healing"
    ],
    "mealType": "lunch",
    "estimatedDuration": 109
  },
  {
    "id": "osm-node-4662933588",
    "name": "헐레벌떡's",
    "nameKo": "헐레벌떡's",
    "type": "restaurant",
    "lat": 36.3978128,
    "lng": 127.4036928,
    "isIndoor": false,
    "description": "Local favorite restaurant in Daejeon. 헐레벌떡's offers a memorable experience.",
    "themes": [
      "Gourmet"
    ],
    "mealType": "lunch",
    "estimatedDuration": 72
  },
  {
    "id": "osm-node-4662933589",
    "name": "이디야커피",
    "nameKo": "이디야커피",
    "type": "cafe",
    "lat": 36.3979499,
    "lng": 127.4034301,
    "isIndoor": false,
    "description": "Cozy coffee shop in Daejeon. 이디야커피 offers a memorable experience.",
    "themes": [
      "Gourmet",
      "Healing"
    ],
    "mealType": "cafe",
    "estimatedDuration": 42
  },
  {
    "id": "osm-node-4662933593",
    "name": "엑스포 민속 떡",
    "nameKo": "엑스포 민속 떡",
    "type": "restaurant",
    "lat": 36.3979543,
    "lng": 127.4036354,
    "isIndoor": true,
    "description": "A popular dining spot in Daejeon. 엑스포 민속 떡 offers a memorable experience.",
    "themes": [
      "Gourmet"
    ],
    "mealType": "lunch",
    "estimatedDuration": 106
  },
  {
    "id": "osm-node-4662933594",
    "name": "본도시락 전민점",
    "nameKo": "본도시락 전민점",
    "type": "restaurant",
    "lat": 36.3979407,
    "lng": 127.4038586,
    "isIndoor": false,
    "description": "A popular dining spot in Daejeon. 본도시락 전민점 offers a memorable experience.",
    "themes": [
      "Gourmet"
    ],
    "mealType": "lunch",
    "estimatedDuration": 107
  },
  {
    "id": "osm-node-4662933601",
    "name": "불타는 조개 돌아온 돼지",
    "nameKo": "불타는 조개 돌아온 돼지",
    "type": "restaurant",
    "lat": 36.3981854,
    "lng": 127.403837,
    "isIndoor": true,
    "description": "A popular dining spot in Daejeon. 불타는 조개 돌아온 돼지 offers a memorable experience.",
    "themes": [
      "Gourmet",
      "Healing"
    ],
    "mealType": "lunch",
    "estimatedDuration": 68
  },
  {
    "id": "osm-node-4662933604",
    "name": "천일아구마당",
    "nameKo": "천일아구마당",
    "type": "restaurant",
    "lat": 36.3985056,
    "lng": 127.4038574,
    "isIndoor": true,
    "description": "A popular dining spot in Daejeon. 천일아구마당 offers a memorable experience.",
    "themes": [
      "Gourmet"
    ],
    "mealType": "dinner",
    "estimatedDuration": 63
  },
  {
    "id": "osm-node-4662933605",
    "name": "페리카나 전민점",
    "nameKo": "페리카나 전민점",
    "type": "restaurant",
    "lat": 36.3986159,
    "lng": 127.4038719,
    "isIndoor": true,
    "description": "Local favorite restaurant in Daejeon. 페리카나 전민점 offers a memorable experience.",
    "themes": [
      "Gourmet"
    ],
    "mealType": "dinner",
    "estimatedDuration": 107
  },
  {
    "id": "osm-node-4663177340",
    "name": "장수 숯불생고기",
    "nameKo": "장수 숯불생고기",
    "type": "restaurant",
    "lat": 36.3981936,
    "lng": 127.4040892,
    "isIndoor": true,
    "description": "Local favorite restaurant in Daejeon. 장수 숯불생고기 offers a memorable experience.",
    "themes": [
      "Gourmet"
    ],
    "mealType": "dinner",
    "estimatedDuration": 76
  },
  {
    "id": "osm-node-4663177341",
    "name": "우정 도야지촌",
    "nameKo": "우정 도야지촌",
    "type": "restaurant",
    "lat": 36.398305,
    "lng": 127.4040972,
    "isIndoor": false,
    "description": "A popular dining spot in Daejeon. 우정 도야지촌 offers a memorable experience.",
    "themes": [
      "Gourmet"
    ],
    "mealType": "lunch",
    "estimatedDuration": 80
  },
  {
    "id": "osm-node-4663177352",
    "name": "도르가 아줌마",
    "nameKo": "도르가 아줌마",
    "type": "cafe",
    "lat": 36.3985332,
    "lng": 127.4040619,
    "isIndoor": false,
    "description": "Cozy coffee shop in Daejeon. 도르가 아줌마 offers a memorable experience.",
    "themes": [
      "Gourmet"
    ],
    "mealType": "cafe",
    "estimatedDuration": 36
  },
  {
    "id": "osm-node-4663177357",
    "name": "장원 생 막창",
    "nameKo": "장원 생 막창",
    "type": "restaurant",
    "lat": 36.3990916,
    "lng": 127.4040605,
    "isIndoor": true,
    "description": "Local favorite restaurant in Daejeon. 장원 생 막창 offers a memorable experience.",
    "themes": [
      "Gourmet"
    ],
    "mealType": "dinner",
    "estimatedDuration": 103
  },
  {
    "id": "osm-node-4663177359",
    "name": "오징어와 친구들 전민점",
    "nameKo": "오징어와 친구들 전민점",
    "type": "restaurant",
    "lat": 36.3990306,
    "lng": 127.4038762,
    "isIndoor": true,
    "description": "A popular dining spot in Daejeon. 오징어와 친구들 전민점 offers a memorable experience.",
    "themes": [
      "Gourmet",
      "Healing"
    ],
    "mealType": "lunch",
    "estimatedDuration": 118
  },
  {
    "id": "osm-node-4663177360",
    "name": "사또구이돈",
    "nameKo": "사또구이돈",
    "type": "restaurant",
    "lat": 36.3989947,
    "lng": 127.4037356,
    "isIndoor": true,
    "description": "Local favorite restaurant in Daejeon. 사또구이돈 offers a memorable experience.",
    "themes": [
      "Gourmet",
      "Healing"
    ],
    "mealType": "dinner",
    "estimatedDuration": 67
  },
  {
    "id": "osm-node-4663177361",
    "name": "교촌치킨 전민점",
    "nameKo": "교촌치킨 전민점",
    "type": "restaurant",
    "lat": 36.398999,
    "lng": 127.4036095,
    "isIndoor": false,
    "description": "Local favorite restaurant in Daejeon. 교촌치킨 전민점 offers a memorable experience.",
    "themes": [
      "Gourmet"
    ],
    "mealType": "dinner",
    "estimatedDuration": 118
  },
  {
    "id": "osm-node-4663177362",
    "name": "아저씨 전민점",
    "nameKo": "아저씨 전민점",
    "type": "restaurant",
    "lat": 36.3988587,
    "lng": 127.4035827,
    "isIndoor": true,
    "description": "A popular dining spot in Daejeon. 아저씨 전민점 offers a memorable experience.",
    "themes": [
      "Gourmet",
      "Healing"
    ],
    "mealType": "lunch",
    "estimatedDuration": 112
  },
  {
    "id": "osm-node-4663177363",
    "name": "하남 돼지집",
    "nameKo": "하남 돼지집",
    "type": "restaurant",
    "lat": 36.3988566,
    "lng": 127.4033869,
    "isIndoor": true,
    "description": "A popular dining spot in Daejeon. 하남 돼지집 offers a memorable experience.",
    "themes": [
      "Gourmet"
    ],
    "mealType": "dinner",
    "estimatedDuration": 83
  },
  {
    "id": "osm-node-4663177364",
    "name": "양반댁 참숯돼지갈비",
    "nameKo": "양반댁 참숯돼지갈비",
    "type": "restaurant",
    "lat": 36.3990681,
    "lng": 127.4034888,
    "isIndoor": true,
    "description": "Local favorite restaurant in Daejeon. 양반댁 참숯돼지갈비 offers a memorable experience.",
    "themes": [
      "Gourmet"
    ],
    "mealType": "lunch",
    "estimatedDuration": 86
  },
  {
    "id": "osm-node-4663177365",
    "name": "맥주창고",
    "nameKo": "맥주창고",
    "type": "bar",
    "lat": 36.3990163,
    "lng": 127.4033815,
    "isIndoor": true,
    "description": "Casual nightlife spot in Daejeon. 맥주창고 offers a memorable experience.",
    "themes": [
      "Nightlife",
      "Gourmet"
    ],
    "mealType": "dinner",
    "estimatedDuration": 89
  },
  {
    "id": "osm-node-4663177366",
    "name": "부산아즈매 낙지볶음",
    "nameKo": "부산아즈매 낙지볶음",
    "type": "restaurant",
    "lat": 36.3990055,
    "lng": 127.4032501,
    "isIndoor": false,
    "description": "Great food and atmosphere in Daejeon. 부산아즈매 낙지볶음 offers a memorable experience.",
    "themes": [
      "Gourmet"
    ],
    "mealType": "lunch",
    "estimatedDuration": 73
  },
  {
    "id": "osm-node-4663177367",
    "name": "곱창들의 수다",
    "nameKo": "곱창들의 수다",
    "type": "restaurant",
    "lat": 36.3990055,
    "lng": 127.4031321,
    "isIndoor": false,
    "description": "Great food and atmosphere in Daejeon. 곱창들의 수다 offers a memorable experience.",
    "themes": [
      "Gourmet"
    ],
    "mealType": "dinner",
    "estimatedDuration": 117
  },
  {
    "id": "osm-node-4663177368",
    "name": "옥탑방 오봉자싸롱",
    "nameKo": "옥탑방 오봉자싸롱",
    "type": "restaurant",
    "lat": 36.3990185,
    "lng": 127.4030248,
    "isIndoor": true,
    "description": "Local favorite restaurant in Daejeon. 옥탑방 오봉자싸롱 offers a memorable experience.",
    "themes": [
      "Gourmet"
    ],
    "mealType": "dinner",
    "estimatedDuration": 114
  },
  {
    "id": "osm-node-4663177369",
    "name": "우리집 生뒷고기 산꼽장어",
    "nameKo": "우리집 生뒷고기 산꼽장어",
    "type": "restaurant",
    "lat": 36.3989969,
    "lng": 127.4029041,
    "isIndoor": true,
    "description": "A popular dining spot in Daejeon. 우리집 生뒷고기 산꼽장어 offers a memorable experience.",
    "themes": [
      "Gourmet"
    ],
    "mealType": "dinner",
    "estimatedDuration": 113
  },
  {
    "id": "osm-node-4663177373",
    "name": "화랑독서실",
    "nameKo": "화랑독서실",
    "type": "culture",
    "lat": 36.399189,
    "lng": 127.4023596,
    "isIndoor": true,
    "description": "Inspiring cultural space in Daejeon. 화랑독서실 offers a memorable experience.",
    "themes": [
      "Intellectual",
      "Quiet"
    ],
    "mealType": null,
    "estimatedDuration": 99
  },
  {
    "id": "osm-node-4663177374",
    "name": "맥주마을 세계맥주",
    "nameKo": "맥주마을 세계맥주",
    "type": "bar",
    "lat": 36.3992085,
    "lng": 127.4022014,
    "isIndoor": false,
    "description": "Casual nightlife spot in Daejeon. 맥주마을 세계맥주 offers a memorable experience.",
    "themes": [
      "Nightlife",
      "Gourmet"
    ],
    "mealType": "dinner",
    "estimatedDuration": 33
  },
  {
    "id": "osm-node-4663177375",
    "name": "가바",
    "nameKo": "가바",
    "type": "restaurant",
    "lat": 36.3992322,
    "lng": 127.402078,
    "isIndoor": true,
    "description": "Local favorite restaurant in Daejeon. 가바 offers a memorable experience.",
    "themes": [
      "Gourmet",
      "Healing"
    ],
    "mealType": "dinner",
    "estimatedDuration": 101
  },
  {
    "id": "osm-node-4663177376",
    "name": "여보게친구",
    "nameKo": "여보게친구",
    "type": "bar",
    "lat": 36.3991977,
    "lng": 127.4019385,
    "isIndoor": true,
    "description": "Perfect for a night out in Daejeon. 여보게친구 offers a memorable experience.",
    "themes": [
      "Nightlife",
      "Gourmet"
    ],
    "mealType": "dinner",
    "estimatedDuration": 104
  },
  {
    "id": "osm-node-4663178289",
    "name": "장수곱들구이",
    "nameKo": "장수곱들구이",
    "type": "restaurant",
    "lat": 36.3991986,
    "lng": 127.4015138,
    "isIndoor": true,
    "description": "A popular dining spot in Daejeon. 장수곱들구이 offers a memorable experience.",
    "themes": [
      "Gourmet",
      "Healing"
    ],
    "mealType": "lunch",
    "estimatedDuration": 70
  },
  {
    "id": "osm-node-4663178983",
    "name": "서연재",
    "nameKo": "서연재",
    "type": "restaurant",
    "lat": 36.3993723,
    "lng": 127.4004128,
    "isIndoor": true,
    "description": "A popular dining spot in Daejeon. 서연재 offers a memorable experience.",
    "themes": [
      "Gourmet"
    ],
    "mealType": "dinner",
    "estimatedDuration": 107
  },
  {
    "id": "osm-node-4663178993",
    "name": "CAFE RANGHEE",
    "nameKo": "CAFE RANGHEE",
    "type": "cafe",
    "lat": 36.398091,
    "lng": 127.4004783,
    "isIndoor": true,
    "description": "Perfect for a relaxing break in Daejeon. CAFE RANGHEE offers a memorable experience.",
    "themes": [
      "Gourmet"
    ],
    "mealType": "cafe",
    "estimatedDuration": 107
  },
  {
    "id": "osm-node-4663178995",
    "name": "새참",
    "nameKo": "새참",
    "type": "restaurant",
    "lat": 36.3975609,
    "lng": 127.400477,
    "isIndoor": true,
    "description": "Great food and atmosphere in Daejeon. 새참 offers a memorable experience.",
    "themes": [
      "Gourmet"
    ],
    "mealType": "dinner",
    "estimatedDuration": 67
  },
  {
    "id": "osm-node-4663179005",
    "name": "신가네 매운떡볶기 전민점",
    "nameKo": "신가네 매운떡볶기 전민점",
    "type": "restaurant",
    "lat": 36.3973418,
    "lng": 127.400422,
    "isIndoor": false,
    "description": "Great food and atmosphere in Daejeon. 신가네 매운떡볶기 전민점 offers a memorable experience.",
    "themes": [
      "Gourmet"
    ],
    "mealType": "dinner",
    "estimatedDuration": 72
  },
  {
    "id": "osm-node-4663179007",
    "name": "달봉봉이 돈까스",
    "nameKo": "달봉봉이 돈까스",
    "type": "restaurant",
    "lat": 36.3971432,
    "lng": 127.4004542,
    "isIndoor": true,
    "description": "Great food and atmosphere in Daejeon. 달봉봉이 돈까스 offers a memorable experience.",
    "themes": [
      "Gourmet"
    ],
    "mealType": "lunch",
    "estimatedDuration": 91
  },
  {
    "id": "osm-node-4663179018",
    "name": "커피디자인",
    "nameKo": "커피디자인",
    "type": "cafe",
    "lat": 36.3965721,
    "lng": 127.4004086,
    "isIndoor": true,
    "description": "Perfect for a relaxing break in Daejeon. 커피디자인 offers a memorable experience.",
    "themes": [
      "Gourmet"
    ],
    "mealType": "cafe",
    "estimatedDuration": 51
  },
  {
    "id": "osm-node-4663179019",
    "name": "新東陽大飯店 신동양대반점",
    "nameKo": "新東陽大飯店 신동양대반점",
    "type": "restaurant",
    "lat": 36.3965455,
    "lng": 127.4005874,
    "isIndoor": false,
    "description": "Great food and atmosphere in Daejeon. 新東陽大飯店 신동양대반점 offers a memorable experience.",
    "themes": [
      "Gourmet"
    ],
    "mealType": "dinner",
    "estimatedDuration": 83
  },
  {
    "id": "osm-node-4663179049",
    "name": "침도시락",
    "nameKo": "침도시락",
    "type": "restaurant",
    "lat": 36.3965331,
    "lng": 127.4016353,
    "isIndoor": true,
    "description": "Local favorite restaurant in Daejeon. 침도시락 offers a memorable experience.",
    "themes": [
      "Gourmet"
    ],
    "mealType": "lunch",
    "estimatedDuration": 79
  },
  {
    "id": "osm-node-4663179066",
    "name": "전민순대국밥",
    "nameKo": "전민순대국밥",
    "type": "restaurant",
    "lat": 36.3965369,
    "lng": 127.4020769,
    "isIndoor": true,
    "description": "A popular dining spot in Daejeon. 전민순대국밥 offers a memorable experience.",
    "themes": [
      "Gourmet"
    ],
    "mealType": "lunch",
    "estimatedDuration": 91
  },
  {
    "id": "osm-node-4663179229",
    "name": "차(茶)마시는집",
    "nameKo": "차(茶)마시는집",
    "type": "cafe",
    "lat": 36.3965434,
    "lng": 127.4038994,
    "isIndoor": false,
    "description": "Perfect for a relaxing break in Daejeon. 차(茶)마시는집 offers a memorable experience.",
    "themes": [
      "Gourmet"
    ],
    "mealType": "cafe",
    "estimatedDuration": 52
  },
  {
    "id": "osm-node-4663179240",
    "name": "박사부대찌개",
    "nameKo": "박사부대찌개",
    "type": "restaurant",
    "lat": 36.3969103,
    "lng": 127.4038885,
    "isIndoor": true,
    "description": "Great food and atmosphere in Daejeon. 박사부대찌개 offers a memorable experience.",
    "themes": [
      "Gourmet"
    ],
    "mealType": "lunch",
    "estimatedDuration": 89
  },
  {
    "id": "osm-node-4663179285",
    "name": "Cafe B 307308",
    "nameKo": "Cafe B 307308",
    "type": "cafe",
    "lat": 36.3967732,
    "lng": 127.4027048,
    "isIndoor": false,
    "description": "Charming cafe atmosphere in Daejeon. Cafe B 307308 offers a memorable experience.",
    "themes": [
      "Gourmet",
      "Healing"
    ],
    "mealType": "cafe",
    "estimatedDuration": 115
  },
  {
    "id": "osm-node-4663179306",
    "name": "mori's coffee",
    "nameKo": "mori's coffee",
    "type": "cafe",
    "lat": 36.3967621,
    "lng": 127.402252,
    "isIndoor": false,
    "description": "Perfect for a relaxing break in Daejeon. mori's coffee offers a memorable experience.",
    "themes": [
      "Gourmet"
    ],
    "mealType": "cafe",
    "estimatedDuration": 48
  },
  {
    "id": "osm-node-4663450304",
    "name": "삼총닭강정",
    "nameKo": "삼총닭강정",
    "type": "restaurant",
    "lat": 36.3990238,
    "lng": 127.4014913,
    "isIndoor": false,
    "description": "Great food and atmosphere in Daejeon. 삼총닭강정 offers a memorable experience.",
    "themes": [
      "Gourmet"
    ],
    "mealType": "dinner",
    "estimatedDuration": 73
  },
  {
    "id": "osm-node-4663450306",
    "name": "삼형제쭈꾸미",
    "nameKo": "삼형제쭈꾸미",
    "type": "restaurant",
    "lat": 36.3990066,
    "lng": 127.401667,
    "isIndoor": true,
    "description": "Great food and atmosphere in Daejeon. 삼형제쭈꾸미 offers a memorable experience.",
    "themes": [
      "Gourmet",
      "Healing"
    ],
    "mealType": "lunch",
    "estimatedDuration": 104
  },
  {
    "id": "osm-node-4663450313",
    "name": "홍가네 연탄불고기",
    "nameKo": "홍가네 연탄불고기",
    "type": "restaurant",
    "lat": 36.3990098,
    "lng": 127.4019379,
    "isIndoor": true,
    "description": "Local favorite restaurant in Daejeon. 홍가네 연탄불고기 offers a memorable experience.",
    "themes": [
      "Gourmet"
    ],
    "mealType": "dinner",
    "estimatedDuration": 115
  },
  {
    "id": "osm-node-4663450314",
    "name": "바이젠하우스 WeizenHouse",
    "nameKo": "바이젠하우스 WeizenHouse",
    "type": "bar",
    "lat": 36.3990411,
    "lng": 127.4023939,
    "isIndoor": true,
    "description": "Great for a relaxed evening in Daejeon. 바이젠하우스 WeizenHouse offers a memorable experience.",
    "themes": [
      "Nightlife",
      "Gourmet"
    ],
    "mealType": "dinner",
    "estimatedDuration": 36
  },
  {
    "id": "osm-node-4663450315",
    "name": "종로맥주가게",
    "nameKo": "종로맥주가게",
    "type": "bar",
    "lat": 36.3990228,
    "lng": 127.4022303,
    "isIndoor": true,
    "description": "Casual nightlife spot in Daejeon. 종로맥주가게 offers a memorable experience.",
    "themes": [
      "Nightlife",
      "Gourmet"
    ],
    "mealType": "dinner",
    "estimatedDuration": 33
  },
  {
    "id": "osm-node-4663450316",
    "name": "등갈비 4色 요리전문점",
    "nameKo": "등갈비 4色 요리전문점",
    "type": "restaurant",
    "lat": 36.3990595,
    "lng": 127.4020734,
    "isIndoor": true,
    "description": "A popular dining spot in Daejeon. 등갈비 4色 요리전문점 offers a memorable experience.",
    "themes": [
      "Gourmet",
      "Healing"
    ],
    "mealType": "lunch",
    "estimatedDuration": 78
  },
  {
    "id": "osm-node-4663450328",
    "name": "철판순대",
    "nameKo": "철판순대",
    "type": "restaurant",
    "lat": 36.3978096,
    "lng": 127.4011296,
    "isIndoor": false,
    "description": "A popular dining spot in Daejeon. 철판순대 offers a memorable experience.",
    "themes": [
      "Gourmet",
      "Healing"
    ],
    "mealType": "lunch",
    "estimatedDuration": 78
  },
  {
    "id": "osm-node-4663450382",
    "name": "푸드빠레뜨",
    "nameKo": "푸드빠레뜨",
    "type": "restaurant",
    "lat": 36.3972579,
    "lng": 127.4013218,
    "isIndoor": true,
    "description": "Local favorite restaurant in Daejeon. 푸드빠레뜨 offers a memorable experience.",
    "themes": [
      "Gourmet"
    ],
    "mealType": "lunch",
    "estimatedDuration": 65
  },
  {
    "id": "osm-node-4663450389",
    "name": "동원식당",
    "nameKo": "동원식당",
    "type": "restaurant",
    "lat": 36.3975687,
    "lng": 127.4013151,
    "isIndoor": true,
    "description": "Local favorite restaurant in Daejeon. 동원식당 offers a memorable experience.",
    "themes": [
      "Gourmet"
    ],
    "mealType": "dinner",
    "estimatedDuration": 92
  },
  {
    "id": "osm-node-4663450395",
    "name": "Deété",
    "nameKo": "Deété",
    "type": "cafe",
    "lat": 36.3977987,
    "lng": 127.4013487,
    "isIndoor": true,
    "description": "Charming cafe atmosphere in Daejeon. Deété offers a memorable experience.",
    "themes": [
      "Gourmet",
      "Healing"
    ],
    "mealType": "cafe",
    "estimatedDuration": 87
  },
  {
    "id": "osm-node-4664702198",
    "name": "비비큐치킨 전민점",
    "nameKo": "비비큐치킨 전민점",
    "type": "restaurant",
    "lat": 36.3981886,
    "lng": 127.4013467,
    "isIndoor": true,
    "description": "Great food and atmosphere in Daejeon. 비비큐치킨 전민점 offers a memorable experience.",
    "themes": [
      "Gourmet",
      "Healing"
    ],
    "mealType": "lunch",
    "estimatedDuration": 70
  },
  {
    "id": "osm-node-4664702221",
    "name": "하평 칼국수",
    "nameKo": "하평 칼국수",
    "type": "restaurant",
    "lat": 36.3988963,
    "lng": 127.4014509,
    "isIndoor": true,
    "description": "Great food and atmosphere in Daejeon. 하평 칼국수 offers a memorable experience.",
    "themes": [
      "Gourmet"
    ],
    "mealType": "lunch",
    "estimatedDuration": 99
  },
  {
    "id": "osm-node-4664702222",
    "name": "Tokyo House 도쿄하우스",
    "nameKo": "Tokyo House 도쿄하우스",
    "type": "bar",
    "lat": 36.3988557,
    "lng": 127.4015991,
    "isIndoor": true,
    "description": "Great for a relaxed evening in Daejeon. Tokyo House 도쿄하우스 offers a memorable experience.",
    "themes": [
      "Nightlife",
      "Gourmet"
    ],
    "mealType": "dinner",
    "estimatedDuration": 45
  },
  {
    "id": "osm-node-4664702223",
    "name": "스시안",
    "nameKo": "스시안",
    "type": "restaurant",
    "lat": 36.3988622,
    "lng": 127.4018303,
    "isIndoor": true,
    "description": "Local favorite restaurant in Daejeon. 스시안 offers a memorable experience.",
    "themes": [
      "Gourmet"
    ],
    "mealType": "dinner",
    "estimatedDuration": 60
  },
  {
    "id": "osm-node-4664760768",
    "name": "꼬꾸마시",
    "nameKo": "꼬꾸마시",
    "type": "restaurant",
    "lat": 36.398874,
    "lng": 127.4020355,
    "isIndoor": true,
    "description": "Great food and atmosphere in Daejeon. 꼬꾸마시 offers a memorable experience.",
    "themes": [
      "Gourmet"
    ],
    "mealType": "lunch",
    "estimatedDuration": 103
  },
  {
    "id": "osm-node-4664760771",
    "name": "큰통치킨",
    "nameKo": "큰통치킨",
    "type": "restaurant",
    "lat": 36.3987457,
    "lng": 127.4027404,
    "isIndoor": true,
    "description": "A popular dining spot in Daejeon. 큰통치킨 offers a memorable experience.",
    "themes": [
      "Gourmet"
    ],
    "mealType": "lunch",
    "estimatedDuration": 116
  },
  {
    "id": "osm-node-4664760772",
    "name": "Rico espresso",
    "nameKo": "Rico espresso",
    "type": "cafe",
    "lat": 36.3986291,
    "lng": 127.4027525,
    "isIndoor": false,
    "description": "Cozy coffee shop in Daejeon. Rico espresso offers a memorable experience.",
    "themes": [
      "Gourmet"
    ],
    "mealType": "cafe",
    "estimatedDuration": 101
  },
  {
    "id": "osm-node-4664760774",
    "name": "만초 전민점",
    "nameKo": "만초 전민점",
    "type": "restaurant",
    "lat": 36.3983938,
    "lng": 127.4027672,
    "isIndoor": true,
    "description": "Local favorite restaurant in Daejeon. 만초 전민점 offers a memorable experience.",
    "themes": [
      "Gourmet",
      "Healing"
    ],
    "mealType": "dinner",
    "estimatedDuration": 71
  },
  {
    "id": "osm-node-4664760775",
    "name": "다사랑 치킨피자 전민점",
    "nameKo": "다사랑 치킨피자 전민점",
    "type": "restaurant",
    "lat": 36.398248,
    "lng": 127.402727,
    "isIndoor": false,
    "description": "Great food and atmosphere in Daejeon. 다사랑 치킨피자 전민점 offers a memorable experience.",
    "themes": [
      "Gourmet",
      "Healing"
    ],
    "mealType": "dinner",
    "estimatedDuration": 103
  },
  {
    "id": "osm-node-4664760776",
    "name": "청석골 칡 냉면",
    "nameKo": "청석골 칡 냉면",
    "type": "restaurant",
    "lat": 36.3980742,
    "lng": 127.4027605,
    "isIndoor": true,
    "description": "Great food and atmosphere in Daejeon. 청석골 칡 냉면 offers a memorable experience.",
    "themes": [
      "Gourmet",
      "Healing"
    ],
    "mealType": "lunch",
    "estimatedDuration": 96
  },
  {
    "id": "osm-node-4664760778",
    "name": "한우곰탕",
    "nameKo": "한우곰탕",
    "type": "restaurant",
    "lat": 36.3977974,
    "lng": 127.4027543,
    "isIndoor": true,
    "description": "Local favorite restaurant in Daejeon. 한우곰탕 offers a memorable experience.",
    "themes": [
      "Gourmet"
    ],
    "mealType": "dinner",
    "estimatedDuration": 117
  },
  {
    "id": "osm-node-4664760779",
    "name": "松林 송림",
    "nameKo": "松林 송림",
    "type": "restaurant",
    "lat": 36.39767,
    "lng": 127.4027436,
    "isIndoor": true,
    "description": "Great food and atmosphere in Daejeon. 松林 송림 offers a memorable experience.",
    "themes": [
      "Gourmet",
      "Healing"
    ],
    "mealType": "dinner",
    "estimatedDuration": 66
  },
  {
    "id": "osm-node-4664760784",
    "name": "299 RIB",
    "nameKo": "299 RIB",
    "type": "restaurant",
    "lat": 36.3975574,
    "lng": 127.4027418,
    "isIndoor": true,
    "description": "A popular dining spot in Daejeon. 299 RIB offers a memorable experience.",
    "themes": [
      "Gourmet"
    ],
    "mealType": "lunch",
    "estimatedDuration": 61
  },
  {
    "id": "osm-node-4664760889",
    "name": "참숯탱이",
    "nameKo": "참숯탱이",
    "type": "restaurant",
    "lat": 36.3974482,
    "lng": 127.4027112,
    "isIndoor": true,
    "description": "A popular dining spot in Daejeon. 참숯탱이 offers a memorable experience.",
    "themes": [
      "Gourmet"
    ],
    "mealType": "dinner",
    "estimatedDuration": 105
  },